"_id","_index","_score","_type",altitude,createTime,currentFlightDuration,"currentFlightDuration.keyword",currentFlightMileage,droneSN,droneType,groundSpeed,heading,latitude,longitude,model,pitch,roll,taskId,taskLogId,taskName,verticalSpeed
34XxgJYBnF7jCuO6JPCJ,"task-uav-data","-","_doc","52.622","2025-04-29T17:46:49.000Z","-","-",0,1581F5BMD23B4002FY18,3,0,"134.7","31.8240780051837","117.09491792714455",M30T,"3.7","-0.9","1,917,151,911,515,332,608",1917151940770603000,1,0
3YXxgJYBnF7jCuO6HPDj,"task-uav-data","-","_doc","52.622","2025-04-29T17:46:47.000Z","-","-",0,1581F5BMD23B4002FY18,3,0,"134.9","31.82407800693563","117.09491781603013",M30T,"3.7","-1","1,917,151,911,515,332,608",1917151940770603000,1,0
24XxgJYBnF7jCuO6FPDv,"task-uav-data","-","_doc","52.622","2025-04-29T17:46:45.000Z","-","-",0,1581F5BMD23B4002FY18,3,0,"135.6","31.824077917766857","117.0949179971306",M30T,"3.7","-1.1","1,917,151,911,515,332,608",1917151940770603000,1,0
"2YXxgJYBnF7jCuO6DPD-","task-uav-data","-","_doc","52.622","2025-04-29T17:46:43.000Z","-","-",0,1581F5BMD23B4002FY18,3,0,"134.4","31.82407809069011","117.09491788565195",M30T,"3.9","-1","1,917,151,911,515,332,608",1917151940770603000,1,0
14XxgJYBnF7jCuO6BfBM,"task-uav-data","-","_doc","52.622","2025-04-29T17:46:41.000Z","-","-",0,1581F5BMD23B4002FY18,3,0,"134.2","31.824078044167457","117.09491784483748",M30T,"3.9","-0.9","1,917,151,911,515,332,608",1917151940770603000,1,0
"1YXwgJYBnF7jCuO6_fCN","task-uav-data","-","_doc","52.622","2025-04-29T17:46:39.000Z","-","-",0,1581F5BMD23B4002FY18,3,0,"134.3","31.824078081570626","117.09491795256284",M30T,"3.9","-0.8","1,917,151,911,515,332,608",1917151940770603000,1,0
04XwgJYBnF7jCuO69fDP,"task-uav-data","-","_doc","52.622","2025-04-29T17:46:37.000Z","-","-",0,1581F5BMD23B4002FY18,3,0,"134.4","31.824078061057136","117.09491787558068",M30T,4,"-0.3","1,917,151,911,515,332,608",1917151940770603000,1,0
0YXwgJYBnF7jCuO67fDy,"task-uav-data","-","_doc","52.622","2025-04-29T17:46:35.000Z","-","-",0,1581F5BMD23B4002FY18,3,0,"134.5","31.82407808144641","117.09491787687125",M30T,4,"-0.4","1,917,151,911,515,332,608",1917151940770603000,1,0
z4XwgJYBnF7jCuO65vAM,"task-uav-data","-","_doc","52.622","2025-04-29T17:46:33.000Z","-","-",0,1581F5BMD23B4002FY18,3,0,"134.6","31.824078036191658","117.0949178856507",M30T,4,"-0.3","1,917,151,911,515,332,608",1917151940770603000,1,0
zYXwgJYBnF7jCuO63vAy,"task-uav-data","-","_doc","52.622","2025-04-29T17:46:31.000Z","-","-",0,1581F5BMD23B4002FY18,3,0,"134.6","31.824078056242527","117.09491788933215",M30T,4,"-0.4","1,917,151,911,515,332,608",1917151940770603000,1,0
y4XwgJYBnF7jCuO61vBq,"task-uav-data","-","_doc","52.622","2025-04-29T17:46:29.000Z","-","-",0,1581F5BMD23B4002FY18,3,0,"134.6","31.82407803916438","117.09491790107211",M30T,4,"-0.4","1,917,151,911,515,332,608",1917151940770603000,1,0
"yYXwgJYBnF7jCuO6zvC_","task-uav-data","-","_doc","52.622","2025-04-29T17:46:27.000Z","-","-",0,1581F5BMD23B4002FY18,3,0,"134.6","31.824078058551315","117.09491785182095",M30T,4,"-0.4","1,917,151,911,515,332,608",1917151940770603000,1,0
x4XwgJYBnF7jCuO6xvDr,"task-uav-data","-","_doc","52.622","2025-04-29T17:46:25.000Z","-","-",0,1581F5BMD23B4002FY18,3,0,"134.6","31.824078032974782","117.09491789485364",M30T,"3.9","-0.4","1,917,151,911,515,332,608",1917151940770603000,1,0
xYXwgJYBnF7jCuO6vvDt,"task-uav-data","-","_doc","52.622","2025-04-29T17:46:23.000Z","-","-",0,1581F5BMD23B4002FY18,3,0,"134.7","31.82407808905383","117.09491788481512",M30T,"3.9","-0.4","1,917,151,911,515,332,608",1917151940770603000,1,0
"w4XwgJYBnF7jCuO6t_An","task-uav-data","-","_doc","52.622","2025-04-29T17:46:21.000Z","-","-",0,1581F5BMD23B4002FY18,3,0,"134.9","31.824077988443936","117.09491798318",M30T,"3.9","-0.5","1,917,151,911,515,332,608",1917151940770603000,1,0
"wYXwgJYBnF7jCuO6r_BK","task-uav-data","-","_doc","52.622","2025-04-29T17:46:19.000Z","-","-",0,1581F5BMD23B4002FY18,3,0,135,"31.82407814148337","117.09491776622444",M30T,"3.9","-0.5","1,917,151,911,515,332,608",1917151940770603000,1,0
"v4XwgJYBnF7jCuO6p_Cd","task-uav-data","-","_doc","52.622","2025-04-29T17:46:17.000Z","-","-",0,1581F5BMD23B4002FY18,3,0,"134.7","31.82407814088797","117.09491775500625",M30T,"3.9","-0.5","1,917,151,911,515,332,608",1917151940770603000,1,0
"vYXwgJYBnF7jCuO6n_Da","task-uav-data","-","_doc","52.622","2025-04-29T17:46:15.000Z","-","-",0,1581F5BMD23B4002FY18,3,0,"134.9","31.824078129845216","117.09491775260281",M30T,"3.9","-0.5","1,917,151,911,515,332,608",1917151940770603000,1,0
"u4XwgJYBnF7jCuO6l_D1","task-uav-data","-","_doc","52.622","2025-04-29T17:46:13.000Z","-","-",0,1581F5BMD23B4002FY18,3,0,"134.9","31.824078163294747","117.09491779664752",M30T,"3.8","-0.6","1,917,151,911,515,332,608",1917151940770603000,1,0
uYXwgJYBnF7jCuO6kPAR,"task-uav-data","-","_doc","52.622","2025-04-29T17:46:11.000Z","-","-",0,1581F5BMD23B4002FY18,3,0,"134.9","31.824078182643134","117.09491772839316",M30T,"3.9","-0.5","1,917,151,911,515,332,608",1917151940770603000,1,0
t4XwgJYBnF7jCuO6iPA1,"task-uav-data","-","_doc","52.622","2025-04-29T17:46:09.000Z","-","-",0,1581F5BMD23B4002FY18,3,0,"134.8","31.824078161859788","117.09491774458459",M30T,"3.9","-0.6","1,917,151,911,515,332,608",1917151940770603000,1,0
tYXwgJYBnF7jCuO6gPCt,"task-uav-data","-","_doc","52.622","2025-04-29T17:46:07.000Z","-","-",0,1581F5BMD23B4002FY18,3,0,"134.8","31.824078199198706","117.09491777298108",M30T,"3.9","-0.6","1,917,151,911,515,332,608",1917151940770603000,1,0
s4XwgJYBnF7jCuO6ePDO,"task-uav-data","-","_doc","52.622","2025-04-29T17:46:05.000Z","-","-",0,1581F5BMD23B4002FY18,3,0,"134.8","31.824078179349154","117.09491777638272",M30T,"3.9","-0.6","1,917,151,911,515,332,608",1917151940770603000,1,0
sYXwgJYBnF7jCuO6cPDT,"task-uav-data","-","_doc","52.622","2025-04-29T17:46:03.000Z","-","-",0,1581F5BMD23B4002FY18,3,0,"134.7","31.8240780756466","117.09491772157226",M30T,"3.8","-0.6","1,917,151,911,515,332,608",1917151940770603000,1,0
r4XwgJYBnF7jCuO6afAW,"task-uav-data","-","_doc","52.622","2025-04-29T17:46:01.000Z","-","-",0,1581F5BMD23B4002FY18,3,0,"134.7","31.824078240512673","117.0949177232712",M30T,"3.8","-0.5","1,917,151,911,515,332,608",1917151940770603000,1,0
rYXwgJYBnF7jCuO6YfAr,"task-uav-data","-","_doc","52.622","2025-04-29T17:45:59.000Z","-","-",0,1581F5BMD23B4002FY18,3,0,"134.8","31.8240782274267","117.0949179135897",M30T,"3.8","-0.7","1,917,151,911,515,332,608",1917151940770603000,1,0
q4XwgJYBnF7jCuO6WfBg,"task-uav-data","-","_doc","53.322","2025-04-29T17:45:57.000Z","-","-",0,1581F5BMD23B4002FY18,3,0,"134.6","31.824078164922465","117.09491790492996",M30T,"0.6","-0.3","1,917,151,911,515,332,608",1917151940770603000,1,"-0.3"
qYXwgJYBnF7jCuO6UfCy,"task-uav-data","-","_doc","54.122","2025-04-29T17:45:55.000Z","-","-",0,1581F5BMD23B4002FY18,3,0,"134.6","31.824078144730233","117.09491799532456",M30T,1,"-0.3","1,917,151,911,515,332,608",1917151940770603000,1,"-0.3"
p4XwgJYBnF7jCuO6SfDn,"task-uav-data","-","_doc","54.922","2025-04-29T17:45:53.000Z","-","-",0,1581F5BMD23B4002FY18,3,0,"134.5","31.824078178890822","117.09491800236853",M30T,1,"-0.4","1,917,151,911,515,332,608",1917151940770603000,1,"-0.3"
pYXwgJYBnF7jCuO6QfD2,"task-uav-data","-","_doc","55.722","2025-04-29T17:45:51.000Z","-","-",0,1581F5BMD23B4002FY18,3,0,"134.7","31.824078242277455","117.09491781964476",M30T,1,"-0.3","1,917,151,911,515,332,608",1917151940770603000,1,"-0.4"
o4XwgJYBnF7jCuO6OvAc,"task-uav-data","-","_doc","56.522","2025-04-29T17:45:49.000Z","-","-",0,1581F5BMD23B4002FY18,3,0,"134.8","31.82407819675285","117.09491794079767",M30T,"1.2","-0.3","1,917,151,911,515,332,608",1917151940770603000,1,"-0.3"
oYXwgJYBnF7jCuO6MvB4,"task-uav-data","-","_doc","57.322","2025-04-29T17:45:47.000Z","-","-",0,1581F5BMD23B4002FY18,3,0,"134.7","31.82407815935397","117.09491793249589",M30T,"1.2","-0.7","1,917,151,911,515,332,608",1917151940770603000,1,"-0.4"
n4XwgJYBnF7jCuO6KvC1,"task-uav-data","-","_doc","58.122","2025-04-29T17:45:45.000Z","-","-",0,1581F5BMD23B4002FY18,3,0,"134.7","31.82407799217483","117.09491780241984",M30T,"1.1","-1","1,917,151,911,515,332,608",1917151940770603000,1,"-0.4"
"nYXwgJYBnF7jCuO6IvC_","task-uav-data","-","_doc","58.922","2025-04-29T17:45:43.000Z","-","-",0,1581F5BMD23B4002FY18,3,0,"134.4","31.824077990174455","117.09491773243124",M30T,"0.4","-0.9","1,917,151,911,515,332,608",1917151940770603000,1,"-0.4"
"m4XwgJYBnF7jCuO6G_AN","task-uav-data","-","_doc","59.722","2025-04-29T17:45:41.000Z","-","-",0,1581F5BMD23B4002FY18,3,0,"134.4","31.82407808543002","117.09491790032978",M30T,"0.7","-0.5","1,917,151,911,515,332,608",1917151940770603000,1,"-0.4"
"mYXwgJYBnF7jCuO6E_AO","task-uav-data","-","_doc","60.522","2025-04-29T17:45:39.000Z","-","-",0,1581F5BMD23B4002FY18,3,0,"134.7","31.82407814467455","117.09491813059441",M30T,"0.4",0,"1,917,151,911,515,332,608",1917151940770603000,1,"-0.4"
"l4XwgJYBnF7jCuO6C_BH","task-uav-data","-","_doc","61.522","2025-04-29T17:45:37.000Z","-","-",0,1581F5BMD23B4002FY18,3,0,"134.6","31.824078044848527","117.09491807847981",M30T,"0.4",0,"1,917,151,911,515,332,608",1917151940770603000,1,"-0.6"
"lYXwgJYBnF7jCuO6A_CK","task-uav-data","-","_doc","63.022","2025-04-29T17:45:35.000Z","-","-",0,1581F5BMD23B4002FY18,3,0,"134.7","31.824078009317237","117.09491803386037",M30T,"0.2","-0.3","1,917,151,911,515,332,608",1917151940770603000,1,"-0.8"
"k4XvgJYBnF7jCuO6-_DG","task-uav-data","-","_doc","65.122","2025-04-29T17:45:33.000Z","-","-",0,1581F5BMD23B4002FY18,3,0,"134.8","31.824077977324077","117.09491811480878",M30T,0,0,"1,917,151,911,515,332,608",1917151940770603000,1,"-1.2"
"kYXvgJYBnF7jCuO68_Dy","task-uav-data","-","_doc","68.222","2025-04-29T17:45:31.000Z","-","-",0,1581F5BMD23B4002FY18,3,0,"134.6","31.82407806570041","117.09491820500803",M30T,"1.1","2.1","1,917,151,911,515,332,608",1917151940770603000,1,"-1.8"
"j4XvgJYBnF7jCuO66_D5","task-uav-data","-","_doc","72.622","2025-04-29T17:45:29.000Z","-","-",0,1581F5BMD23B4002FY18,3,"0.1","135.4","31.824078095573256","117.09491838044205",M30T,"-0.5","-0.1","1,917,151,911,515,332,608",1917151940770603000,1,"-2.6"
jYXvgJYBnF7jCuO65PBq,"task-uav-data","-","_doc","78.422","2025-04-29T17:45:27.000Z","-","-",0,1581F5BMD23B4002FY18,3,0,"133.8","31.8240777010795","117.09491792207295",M30T,"1.6","-1.5","1,917,151,911,515,332,608",1917151940770603000,1,"-3.1"
i4XvgJYBnF7jCuO63PCU,"task-uav-data","-","_doc","85.022","2025-04-29T17:45:25.000Z","-","-",0,1581F5BMD23B4002FY18,3,"0.224","135.5","31.824078156119956","117.09491781660611",M30T,"-2.4","-2.5","1,917,151,911,515,332,608",1917151940770603000,1,"-3.4"
iYXvgJYBnF7jCuO61PDK,"task-uav-data","-","_doc","92.022","2025-04-29T17:45:23.000Z","-","-",0,1581F5BMD23B4002FY18,3,0,"133.7","31.82407799916115","117.09491812900389",M30T,"0.1","-0.3","1,917,151,911,515,332,608",1917151940770603000,1,"-3.6"
h4XvgJYBnF7jCuO6zfA0,"task-uav-data","-","_doc","99.622","2025-04-29T17:45:21.000Z","-","-",0,1581F5BMD23B4002FY18,3,"0.1","134.4","31.824078316792516","117.09491717803895",M30T,"-2.1","-2.7","1,917,151,911,515,332,608",1917151940770603000,1,"-3.9"
hYXvgJYBnF7jCuO6xPD8,"task-uav-data","-","_doc","107.722","2025-04-29T17:45:19.000Z","-","-",0,1581F5BMD23B4002FY18,3,"0.1",135,"31.824077660802132","117.09491853537934",M30T,"2.4","-0.6","1,917,151,911,515,332,608",1917151940770603000,1,"-4"
g4XvgJYBnF7jCuO6vfAf,"task-uav-data","-","_doc","115.622","2025-04-29T17:45:17.000Z","-","-",0,1581F5BMD23B4002FY18,3,0,"134.4","31.82407899900624","117.09491744066507",M30T,"-2.6","-0.1","1,917,151,911,515,332,608",1917151940770603000,1,"-4"
gYXvgJYBnF7jCuO6tfBx,"task-uav-data","-","_doc","123.722","2025-04-29T17:45:15.000Z","-","-",0,1581F5BMD23B4002FY18,3,0,"134.9","31.824078501114055","117.09491733937745",M30T,"-1.1","0.1","1,917,151,911,515,332,608",1917151940770603000,1,"-3.9"
f4XvgJYBnF7jCuO6rfC1,"task-uav-data","-","_doc","131.522","2025-04-29T17:45:13.000Z","-","-",0,1581F5BMD23B4002FY18,3,"0.1","133.9","31.824078154440837","117.09491712726658",M30T,"-1","-3.3","1,917,151,911,515,332,608",1917151940770603000,1,"-3.9"
fYXvgJYBnF7jCuO6pfDi,"task-uav-data","-","_doc","138.022","2025-04-29T17:45:11.000Z","-","-",0,1581F5BMD23B4002FY18,3,0,"134.7","31.8240783030469","117.09491796021305",M30T,"-0.6","0.9","1,917,151,911,515,332,608",1917151940770603000,1,"-2.2"
e4XvgJYBnF7jCuO6nfDs,"task-uav-data","-","_doc","140.522","2025-04-29T17:45:09.000Z",1,1,0,1581F5BMD23B4002FY18,3,"0.1","134.7","31.82407661269959","117.09491962941306",M30T,0,"0.3","1,917,151,911,515,332,608",1917151940770603000,1,"-0.2"
eYXvgJYBnF7jCuO6lvAr,"task-uav-data","-","_doc","140.622","2025-04-29T17:45:07.000Z",1,1,"0.001",1581F5BMD23B4002FY18,3,"1.118","151.7","31.824081364531683","117.09491612994925",M30T,"6.7","0.4","1,917,151,911,515,332,608",1917151940770603000,1,0
d4XvgJYBnF7jCuO6jvBO,"task-uav-data","-","_doc","140.822","2025-04-29T17:45:05.000Z",1,1,"0.006",1581F5BMD23B4002FY18,3,"4.159","151.8","31.824125154361425","117.09488845484279",M30T,7,"-1","1,917,151,911,515,332,608",1917151940770603000,1,"-0.1"
dYXvgJYBnF7jCuO6hvCX,"task-uav-data","-","_doc","141.022","2025-04-29T17:45:03.000Z",1,1,"0.017",1581F5BMD23B4002FY18,3,"5.412","151.7","31.824208343476137","117.0948373567256",M30T,"-6.5","-0.1","1,917,151,911,515,332,608",1917151940770603000,1,0
c4XvgJYBnF7jCuO6fvDA,"task-uav-data","-","_doc","140.922","2025-04-29T17:45:01.000Z",1,1,"0.028",1581F5BMD23B4002FY18,3,"5.771","151.6","31.824298820452555","117.09478168268623",M30T,"-6.3","-0.8","1,917,151,911,515,332,608",1917151940770603000,1,0
cYXvgJYBnF7jCuO6dvD0,"task-uav-data","-","_doc","140.722","2025-04-29T17:44:59.000Z",2,2,"0.038",1581F5BMD23B4002FY18,3,"3.712","151.5","31.824378423147746","117.09473317310349",M30T,"-11.7","-0.5","1,917,151,911,515,332,608",1917151940770603000,1,0
"b4XvgJYBnF7jCuO6b_AB","task-uav-data","-","_doc","140.522","2025-04-29T17:44:57.000Z",1,1,"0.042",1581F5BMD23B4002FY18,3,"1.118","150.6","31.824416116956233","117.09471045539942",M30T,"-7.1","0.1","1,917,151,911,515,332,608",1917151940770603000,1,0
"bYXvgJYBnF7jCuO6Z_BJ","task-uav-data","-","_doc","140.522","2025-04-29T17:44:55.000Z",1,1,"0.043",1581F5BMD23B4002FY18,3,0,"139.7","31.824421436704355","117.09470702552976",M30T,0,"-0.2","1,917,151,911,515,332,608",1917151940770603000,1,0
"a4XvgJYBnF7jCuO6X_CA","task-uav-data","-","_doc","140.522","2025-04-29T17:44:53.000Z",1,1,"0.043",1581F5BMD23B4002FY18,3,0,"129.1","31.824421225752555","117.09470649314659",M30T,"0.6","-0.4","1,917,151,911,515,332,608",1917151940770603000,1,0
"aYXvgJYBnF7jCuO6V_Cs","task-uav-data","-","_doc","140.522","2025-04-29T17:44:51.000Z",1,1,"0.044",1581F5BMD23B4002FY18,3,"0.721","129.1","31.824425504825655","117.09469991937085",M30T,"3.7",0,"1,917,151,911,515,332,608",1917151940770603000,1,0
Z4XvgJYBnF7jCuO6UPA2,"task-uav-data","-","_doc","140.622","2025-04-29T17:44:49.000Z",2,2,"0.048",1581F5BMD23B4002FY18,3,"3.982",129,"31.82444936893729","117.09466537679545",M30T,"12.5","-1","1,917,151,911,515,332,608",1917151940770603000,1,0
ZYXvgJYBnF7jCuO6SPAQ,"task-uav-data","-","_doc","140.522","2025-04-29T17:44:47.000Z",1,1,"0.057",1581F5BMD23B4002FY18,3,"4.904","129.1","31.824504444527","117.09458556799845",M30T,"-5","-0.8","1,917,151,911,515,332,608",1917151940770603000,1,0
Y4XvgJYBnF7jCuO6QPBI,"task-uav-data","-","_doc","140.522","2025-04-29T17:44:45.000Z",1,1,"0.066",1581F5BMD23B4002FY18,3,"4.904","129.1","31.824560617333407","117.09450463845633",M30T,"-4.6","-0.7","1,917,151,911,515,332,608",1917151940770603000,1,0
YYXvgJYBnF7jCuO6OPBt,"task-uav-data","-","_doc","140.622","2025-04-29T17:44:43.000Z",1,1,"0.076",1581F5BMD23B4002FY18,3,"4.841","129.1","31.824616285000012","117.09442430221664",M30T,"-4.7","-0.7","1,917,151,911,515,332,608",1917151940770603000,1,0
X4XvgJYBnF7jCuO6MPCV,"task-uav-data","-","_doc","140.522","2025-04-29T17:44:41.000Z",1,1,"0.085",1581F5BMD23B4002FY18,3,"4.841","129.1","31.824672113758957","117.09434355912255",M30T,"-4.6","-0.7","1,917,151,911,515,332,608",1917151940770603000,1,0
XYXvgJYBnF7jCuO6KPDB,"task-uav-data","-","_doc","140.522","2025-04-29T17:44:39.000Z",1,1,"0.095",1581F5BMD23B4002FY18,3,"4.841",129,"31.824728206002053","117.09426252016368",M30T,"-4.5","-0.4","1,917,151,911,515,332,608",1917151940770603000,1,0
W4XvgJYBnF7jCuO6IPDy,"task-uav-data","-","_doc","140.622","2025-04-29T17:44:37.000Z",1,1,"0.105",1581F5BMD23B4002FY18,3,"4.904","129.1","31.824787059774273","117.09417745016829",M30T,"-3.9","-0.4","1,917,151,911,515,332,608",1917151940770603000,1,0
"WYXvgJYBnF7jCuO6GfA_","task-uav-data","-","_doc","140.522","2025-04-29T17:44:35.000Z",1,1,"0.115",1581F5BMD23B4002FY18,3,"4.904",129,"31.824840934590394","117.09409958610945",M30T,"-4","-0.2","1,917,151,911,515,332,608",1917151940770603000,1,0
V4XvgJYBnF7jCuO6EfB4,"task-uav-data","-","_doc","140.522","2025-04-29T17:44:33.000Z",1,1,"0.124",1581F5BMD23B4002FY18,3,"4.904",129,"31.82489742889612","117.09401790533055",M30T,"-3.8","-0.2","1,917,151,911,515,332,608",1917151940770603000,1,0
VYXvgJYBnF7jCuO6CfCg,"task-uav-data","-","_doc","140.522","2025-04-29T17:44:31.000Z",2,2,"0.134",1581F5BMD23B4002FY18,3,"4.904","128.9","31.8249535463945","117.0939368246699",M30T,"-4","-0.1","1,917,151,911,515,332,608",1917151940770603000,1,0
U4XvgJYBnF7jCuO6AfCu,"task-uav-data","-","_doc","140.522","2025-04-29T17:44:29.000Z",1,1,"0.144",1581F5BMD23B4002FY18,3,"3.624","128.7","31.825007848802663","117.09385913274181",M30T,"-19.2","0.2","1,917,151,911,515,332,608",1917151940770603000,1,0
"UYXugJYBnF7jCuO6-fDu","task-uav-data","-","_doc","140.522","2025-04-29T17:44:27.000Z",1,1,"0.147",1581F5BMD23B4002FY18,3,0,"112.5","31.825022781695907","117.093837446854",M30T,"-1.9","-0.2","1,917,151,911,515,332,608",1917151940770603000,1,0
T4XugJYBnF7jCuO68vAa,"task-uav-data","-","_doc","140.622","2025-04-29T17:44:25.000Z",1,1,"0.147",1581F5BMD23B4002FY18,3,"0.412","105.3","31.82502379512812","117.09383269753071",M30T,"3.8",0,"1,917,151,911,515,332,608",1917151940770603000,1,0
TYXugJYBnF7jCuO66vBw,"task-uav-data","-","_doc","140.622","2025-04-29T17:44:23.000Z",2,2,"0.15",1581F5BMD23B4002FY18,3,"2.983","105.2","31.825031060354963","117.09380034018444",M30T,11,"-0.8","1,917,151,911,515,332,608",1917151940770603000,1,0
S4XugJYBnF7jCuO64vB3,"task-uav-data","-","_doc","140.522","2025-04-29T17:44:21.000Z",1,1,"0.158",1581F5BMD23B4002FY18,3,"4.851","105.2","31.82505326334105","117.09370612733832",M30T,"-3.8","0.1","1,917,151,911,515,332,608",1917151940770603000,1,0
SYXugJYBnF7jCuO62vCf,"task-uav-data","-","_doc","140.622","2025-04-29T17:44:19.000Z",1,1,"0.167",1581F5BMD23B4002FY18,3,"4.948","105.2","31.82507674567652","117.09360544902414",M30T,"-3.5","0.1","1,917,151,911,515,332,608",1917151940770603000,1,0
R4XugJYBnF7jCuO60vDn,"task-uav-data","-","_doc","140.622","2025-04-29T17:44:17.000Z",1,1,"0.176",1581F5BMD23B4002FY18,3,"4.973","105.2","31.82510038427258","117.0935037117109",M30T,"-3.6","-0.4","1,917,151,911,515,332,608",1917151940770603000,1,0
"RYXugJYBnF7jCuO6y_AR","task-uav-data","-","_doc","140.522","2025-04-29T17:44:15.000Z",1,1,"0.185",1581F5BMD23B4002FY18,3,"4.876","105.2","31.82512395159188","117.09340278246016",M30T,"-3.7","-0.2","1,917,151,911,515,332,608",1917151940770603000,1,0
"Q4XugJYBnF7jCuO6w_BK","task-uav-data","-","_doc","140.622","2025-04-29T17:44:13.000Z",1,1,"0.194",1581F5BMD23B4002FY18,3,"4.851","105.2","31.825148834310152","117.09329603593363",M30T,"-3.8","-0.2","1,917,151,911,515,332,608",1917151940770603000,1,0
"QYXugJYBnF7jCuO6u_Bv","task-uav-data","-","_doc","140.622","2025-04-29T17:44:11.000Z",1,1,"0.203",1581F5BMD23B4002FY18,3,"4.948","105.2","31.82517132466496","117.09319983132391",M30T,"-3.6","-0.3","1,917,151,911,515,332,608",1917151940770603000,1,0
"P4XugJYBnF7jCuO6s_CU","task-uav-data","-","_doc","140.522","2025-04-29T17:44:09.000Z",1,1,"0.212",1581F5BMD23B4002FY18,3,"4.851","105.2","31.825194803916336","117.09309873736329",M30T,"-4",0,"1,917,151,911,515,332,608",1917151940770603000,1,0
"PYXugJYBnF7jCuO6q_DE","task-uav-data","-","_doc","140.622","2025-04-29T17:44:07.000Z",1,1,"0.221",1581F5BMD23B4002FY18,3,"4.973","105.2","31.82521821614014","117.09299821448295",M30T,"-3.8","-0.2","1,917,151,911,515,332,608",1917151940770603000,1,0
"O4XugJYBnF7jCuO6o_D0","task-uav-data","-","_doc","140.622","2025-04-29T17:44:05.000Z",1,1,"0.231",1581F5BMD23B4002FY18,3,"4.973","105.2","31.825241860287566","117.09289654444103",M30T,"-3.6","-0.5","1,917,151,911,515,332,608",1917151940770603000,1,0
OYXugJYBnF7jCuO6nPAl,"task-uav-data","-","_doc","140.522","2025-04-29T17:44:03.000Z",1,1,"0.241",1581F5BMD23B4002FY18,3,"4.973","105.2","31.825265618409283","117.09279440462907",M30T,"-4.1","-0.4","1,917,151,911,515,332,608",1917151940770603000,1,0
N4XugJYBnF7jCuO6lPBa,"task-uav-data","-","_doc","140.622","2025-04-29T17:44:01.000Z",1,1,"0.249",1581F5BMD23B4002FY18,3,"4.948","105.1","31.825289310874137","117.09269233224975",M30T,"-3.9","-0.1","1,917,151,911,515,332,608",1917151940770603000,1,0
NYXugJYBnF7jCuO6jPCC,"task-uav-data","-","_doc","140.622","2025-04-29T17:43:59.000Z",1,1,"0.259",1581F5BMD23B4002FY18,3,"4.948",105,"31.82531264784612","117.09259210394364",M30T,"-4.5","-0.6","1,917,151,911,515,332,608",1917151940770603000,1,0
M4XugJYBnF7jCuO6hPDQ,"task-uav-data","-","_doc","140.522","2025-04-29T17:43:57.000Z",1,1,"0.267",1581F5BMD23B4002FY18,3,"1.432","104.3","31.825330944591407","117.09251420294207",M30T,"-13.4","-0.3","1,917,151,911,515,332,608",1917151940770603000,1,0
MYXugJYBnF7jCuO6fPD4,"task-uav-data","-","_doc","140.622","2025-04-29T17:43:55.000Z",1,1,"0.267",1581F5BMD23B4002FY18,3,0,"71.8","31.825332129019323","117.09250678325363",M30T,"1.2","-0.7","1,917,151,911,515,332,608",1917151940770603000,1,0
L4XugJYBnF7jCuO6dfAe,"task-uav-data","-","_doc","140.522","2025-04-29T17:43:53.000Z",1,1,"0.268",1581F5BMD23B4002FY18,3,"0.922","71.7","31.825329447231084","117.09249750448903",M30T,"5.2","-0.5","1,917,151,911,515,332,608",1917151940770603000,1,0
LYXugJYBnF7jCuO6bfBD,"task-uav-data","-","_doc","140.622","2025-04-29T17:43:51.000Z",1,1,"0.271",1581F5BMD23B4002FY18,3,"4.617","71.7","31.825315323877394","117.09244692548629",M30T,"8.6","-0.8","1,917,151,911,515,332,608",1917151940770603000,1,0
K4XugJYBnF7jCuO6ZfBk,"task-uav-data","-","_doc","140.622","2025-04-29T17:43:49.000Z",1,1,"0.278",1581F5BMD23B4002FY18,3,"4.838","71.7","31.8252878168035","117.09234803018488",M30T,"-4.1","-0.1","1,917,151,911,515,332,608",1917151940770603000,1,0
KYXugJYBnF7jCuO6XfCY,"task-uav-data","-","_doc","140.522","2025-04-29T17:43:47.000Z",1,1,"0.285",1581F5BMD23B4002FY18,3,"4.838","71.7","31.82526037538648","117.09224934476356",M30T,"-3.8","-0.2","1,917,151,911,515,332,608",1917151940770603000,1,0
J4XugJYBnF7jCuO6VfDe,"task-uav-data","-","_doc","140.522","2025-04-29T17:43:45.000Z",1,1,"0.291",1581F5BMD23B4002FY18,3,"4.838","71.7","31.8252327031424","117.09215017585981",M30T,"-4","-0.2","1,917,151,911,515,332,608",1917151940770603000,1,0
JYXugJYBnF7jCuO6TvAD,"task-uav-data","-","_doc","140.622","2025-04-29T17:43:43.000Z",1,1,"0.298",1581F5BMD23B4002FY18,3,"4.838","71.7","31.82520522910255","117.09205197747",M30T,"-4.1","-0.1","1,917,151,911,515,332,608",1917151940770603000,1,0
I4XugJYBnF7jCuO6RvAw,"task-uav-data","-","_doc","140.622","2025-04-29T17:43:41.000Z",1,1,"0.306",1581F5BMD23B4002FY18,3,"4.934","71.7","31.825177460497766","117.09195244075181",M30T,"-3.3","-0.4","1,917,151,911,515,332,608",1917151940770603000,1,0
IYXugJYBnF7jCuO6PvBU,"task-uav-data","-","_doc","140.522","2025-04-29T17:43:39.000Z",1,1,"0.313",1581F5BMD23B4002FY18,3,"4.934","71.7","31.8251497444596","117.09185293113575",M30T,"-3.4","-0.1","1,917,151,911,515,332,608",1917151940770603000,1,0
H4XugJYBnF7jCuO6NvCU,"task-uav-data","-","_doc","140.622","2025-04-29T17:43:37.000Z",1,1,"0.321",1581F5BMD23B4002FY18,3,"4.934","71.7","31.825121799376287","117.09175293110044",M30T,"-3.3","-0.1","1,917,151,911,515,332,608",1917151940770603000,1,0
HYXugJYBnF7jCuO6LvDC,"task-uav-data","-","_doc","140.622","2025-04-29T17:43:35.000Z",1,1,"0.329",1581F5BMD23B4002FY18,3,"4.934","71.7","31.825093965937064","117.09165278910166",M30T,"-3.4","-0.5","1,917,151,911,515,332,608",1917151940770603000,1,0
G4XugJYBnF7jCuO6JvDv,"task-uav-data","-","_doc","140.622","2025-04-29T17:43:33.000Z",1,1,"0.336",1581F5BMD23B4002FY18,3,"4.934","71.7","31.82506608561966","117.09155300781916",M30T,"-3.4","-0.5","1,917,151,911,515,332,608",1917151940770603000,1,0
"GYXugJYBnF7jCuO6H_An","task-uav-data","-","_doc","140.622","2025-04-29T17:43:31.000Z",1,1,"0.345",1581F5BMD23B4002FY18,3,"4.934","71.6","31.825038041776914","117.09145244735078",M30T,"-3.6","-0.6","1,917,151,911,515,332,608",1917151940770603000,1,0
"F4XugJYBnF7jCuO6F_BP","task-uav-data","-","_doc","140.622","2025-04-29T17:43:29.000Z",1,1,"0.353",1581F5BMD23B4002FY18,3,"4.934","71.6","31.8250099117167","117.09135150003195",M30T,"-3.4","-0.5","1,917,151,911,515,332,608",1917151940770603000,1,0
"FYXugJYBnF7jCuO6D_B3","task-uav-data","-","_doc","140.622","2025-04-29T17:43:27.000Z",1,1,"0.361",1581F5BMD23B4002FY18,3,"4.934","71.5","31.824981593389865","117.09124970415876",M30T,"-3.7","-0.2","1,917,151,911,515,332,608",1917151940770603000,1,0
"E4XugJYBnF7jCuO6B_Cs","task-uav-data","-","_doc","140.522","2025-04-29T17:43:25.000Z",1,1,"0.369",1581F5BMD23B4002FY18,3,"2.973","70.2","31.8249542714985","117.0911536390927",M30T,"-16.1","-0.5","1,917,151,911,515,332,608",1917151940770603000,1,0
"EYXtgJYBnF7jCuO6__Ds","task-uav-data","-","_doc","140.522","2025-04-29T17:43:23.000Z",1,1,"0.37",1581F5BMD23B4002FY18,3,0,"-28.5","31.82494889990338","117.09113543840807",M30T,0,"-0.1","1,917,151,911,515,332,608",1917151940770603000,1,0
"D4XtgJYBnF7jCuO6-PAs","task-uav-data","-","_doc","140.622","2025-04-29T17:43:21.000Z",2,2,"0.37",1581F5BMD23B4002FY18,3,"0.224","-30.3","31.8249465160383","117.09113775789754",M30T,"1.9","-1.2","1,917,151,911,515,332,608",1917151940770603000,1,0
DYXtgJYBnF7jCuO68PA9,"task-uav-data","-","_doc","140.522","2025-04-29T17:43:19.000Z",1,1,"0.369",1581F5BMD23B4002FY18,3,"2.195","-30.4","31.824928409889825","117.0911504716941",M30T,"6.7","-0.8","1,917,151,911,515,332,608",1917151940770603000,1,0
C4XtgJYBnF7jCuO66PBq,"task-uav-data","-","_doc","140.622","2025-04-29T17:43:17.000Z",1,1,"0.363",1581F5BMD23B4002FY18,3,"4.888","-30.4","31.824862680993984","117.09119582547328",M30T,"-4.4","-1.3","1,917,151,911,515,332,608",1917151940770603000,1,0
CYXtgJYBnF7jCuO64PCy,"task-uav-data","-","_doc","140.622","2025-04-29T17:43:15.000Z",1,1,"0.355",1581F5BMD23B4002FY18,3,"4.888","-30.4","31.824785401561478","117.09124927310604",M30T,"-4.5","-1.5","1,917,151,911,515,332,608",1917151940770603000,1,0
B4XtgJYBnF7jCuO62PDh,"task-uav-data","-","_doc","140.522","2025-04-29T17:43:13.000Z",2,2,"0.349",1581F5BMD23B4002FY18,3,"4.888","-30.4","31.824707910423285","117.09130277300717",M30T,"-4.8","-1.5","1,917,151,911,515,332,608",1917151940770603000,1,0
BYXtgJYBnF7jCuO60PD1,"task-uav-data","-","_doc","140.522","2025-04-29T17:43:11.000Z",1,1,"0.342",1581F5BMD23B4002FY18,3,"4.974","-30.4","31.82463047634077","117.09135628420086",M30T,"-4.7","-1.5","1,917,151,911,515,332,608",1917151940770603000,1,0
A4XtgJYBnF7jCuO6yfAr,"task-uav-data","-","_doc","140.522","2025-04-29T17:43:09.000Z",1,1,"0.336",1581F5BMD23B4002FY18,3,"4.888","-30.5","31.82455274981792","117.0914103990619",M30T,"-4.9","-1.5","1,917,151,911,515,332,608",1917151940770603000,1,0
AYXtgJYBnF7jCuO6wfBr,"task-uav-data","-","_doc","140.622","2025-04-29T17:43:07.000Z",2,2,"0.329",1581F5BMD23B4002FY18,3,"5.025","-30.7","31.824472395375608","117.09146564156461",M30T,"-4.7","-1.7","1,917,151,911,515,332,608",1917151940770603000,1,0
"_4XtgJYBnF7jCuO6ue94","task-uav-data","-","_doc","140.622","2025-04-29T17:43:05.000Z",1,1,"0.325",1581F5BMD23B4002FY18,3,"0.894","-31.9","31.824423698096762","117.09149967407981",M30T,"-13.3","-5","1,917,151,911,515,332,608",1917151940770603000,1,0
"_YXtgJYBnF7jCuO6se-_","task-uav-data","-","_doc","140.622","2025-04-29T17:43:03.000Z",1,1,"0.325",1581F5BMD23B4002FY18,3,"0.1","-93.7","31.824420724964753","117.09150158542431",M30T,"-0.3","-0.5","1,917,151,911,515,332,608",1917151940770603000,1,0
"-4XtgJYBnF7jCuO6qe_h","task-uav-data","-","_doc","140.522","2025-04-29T17:43:01.000Z",1,1,"0.324",1581F5BMD23B4002FY18,3,"0.6","-93.6","31.824421144983635","117.09150834449865",M30T,"2.1","-0.4","1,917,151,911,515,332,608",1917151940770603000,1,0
"-YXtgJYBnF7jCuO6ou8I","task-uav-data","-","_doc","140.622","2025-04-29T17:42:59.000Z",1,1,"0.32",1581F5BMD23B4002FY18,3,"3.306","-93.8","31.824423249807037","117.0915461151701",M30T,"10.6","-0.3","1,917,151,911,515,332,608",1917151940770603000,1,0
94XtgJYBnF7jCuO6mu87,"task-uav-data","-","_doc","140.522","2025-04-29T17:42:57.000Z",1,1,"0.311",1581F5BMD23B4002FY18,3,"4.909","-93.6","31.824428625137333","117.0916459203283",M30T,"-5.2","-0.5","1,917,151,911,515,332,608",1917151940770603000,1,0
"9YXtgJYBnF7jCuO6ku-A","task-uav-data","-","_doc","140.622","2025-04-29T17:42:55.000Z",2,2,"0.302",1581F5BMD23B4002FY18,3,"4.909","-93.6","31.824434540423383","117.09175061516002",M30T,"-5.3","-0.9","1,917,151,911,515,332,608",1917151940770603000,1,0
"84XtgJYBnF7jCuO6iu-X","task-uav-data","-","_doc","140.622","2025-04-29T17:42:53.000Z",1,1,"0.292",1581F5BMD23B4002FY18,3,"4.909","-93.5","31.8244404035883","117.09185479440627",M30T,"-5.4","-1.1","1,917,151,911,515,332,608",1917151940770603000,1,0
"8YXtgJYBnF7jCuO6gu_q","task-uav-data","-","_doc","140.522","2025-04-29T17:42:51.000Z",1,1,"0.283",1581F5BMD23B4002FY18,3,"4.909","-93.6","31.82444605957085","117.09195966636972",M30T,"-5.2","-0.4","1,917,151,911,515,332,608",1917151940770603000,1,0
"74XtgJYBnF7jCuO6e-8S","task-uav-data","-","_doc","140.522","2025-04-29T17:42:49.000Z",1,1,"0.273",1581F5BMD23B4002FY18,3,"4.909","-93.5","31.8244518639667","117.09206388949559",M30T,"-5.2","-0.7","1,917,151,911,515,332,608",1917151940770603000,1,0
"7YXtgJYBnF7jCuO6c-81","task-uav-data","-","_doc","140.622","2025-04-29T17:42:47.000Z",1,1,"0.263",1581F5BMD23B4002FY18,3,"4.909","-93.5","31.82445754527306","117.09216874242304",M30T,"-5.4","-1.3","1,917,151,911,515,332,608",1917151940770603000,1,0
"64XtgJYBnF7jCuO6a--F","task-uav-data","-","_doc","140.622","2025-04-29T17:42:45.000Z",2,2,"0.254",1581F5BMD23B4002FY18,3,"4.909","-93.3","31.824463027244363","117.09227004884488",M30T,"-7.1","-0.9","1,917,151,911,515,332,608",1917151940770603000,1,0
"6YXtgJYBnF7jCuO6Y--T","task-uav-data","-","_doc","140.622","2025-04-29T17:42:43.000Z",1,1,"0.249",1581F5BMD23B4002FY18,3,"0.4","-90.5","31.824465976937287","117.0923252037497",M30T,"-8.4","-2","1,917,151,911,515,332,608",1917151940770603000,1,0
"54XtgJYBnF7jCuO6W-_J","task-uav-data","-","_doc","140.522","2025-04-29T17:42:41.000Z",1,1,"0.248",1581F5BMD23B4002FY18,3,"0.1","-44.8","31.824465102391954","117.09232731222984",M30T,"-0.6","-2","1,917,151,911,515,332,608",1917151940770603000,1,0
"5YXtgJYBnF7jCuO6U-_0","task-uav-data","-","_doc","140.622","2025-04-29T17:42:39.000Z",1,1,"0.247",1581F5BMD23B4002FY18,3,"0.99","-44.8","31.82445855586107","117.09233560128318",M30T,"4.7","-1.4","1,917,151,911,515,332,608",1917151940770603000,1,0
44XtgJYBnF7jCuO6TO8i,"task-uav-data","-","_doc","140.622","2025-04-29T17:42:37.000Z",1,1,"0.243",1581F5BMD23B4002FY18,3,"4.88","-45","31.82442249859107","117.09237800012505",M30T,"-1","-0.9","1,917,151,911,515,332,608",1917151940770603000,1,0
4YXtgJYBnF7jCuO6RO9I,"task-uav-data","-","_doc","140.622","2025-04-29T17:42:35.000Z",1,1,"0.235",1581F5BMD23B4002FY18,3,"4.88","-45","31.824359687416408","117.09245187726887",M30T,"-5","-1.2","1,917,151,911,515,332,608",1917151940770603000,1,0
"34XtgJYBnF7jCuO6PO-F","task-uav-data","-","_doc","140.622","2025-04-29T17:42:33.000Z",1,1,"0.228",1581F5BMD23B4002FY18,3,"4.95","-45","31.824296805136328","117.09252597768254",M30T,"-4.5","-1.1","1,917,151,911,515,332,608",1917151940770603000,1,0
"3YXtgJYBnF7jCuO6NO-v","task-uav-data","-","_doc","140.522","2025-04-29T17:42:31.000Z",1,1,"0.22",1581F5BMD23B4002FY18,3,"4.95","-45.1","31.824233275025847","117.09260040525747",M30T,"-4.6","-0.9","1,917,151,911,515,332,608",1917151940770603000,1,0
"24XtgJYBnF7jCuO6LO_X","task-uav-data","-","_doc","140.522","2025-04-29T17:42:29.000Z",1,1,"0.212",1581F5BMD23B4002FY18,3,"4.95","-45.1","31.824166302513245","117.0926792743531",M30T,"-4.5","-0.4","1,917,151,911,515,332,608",1917151940770603000,1,0
2YXtgJYBnF7jCuO6Je8C,"task-uav-data","-","_doc","140.522","2025-04-29T17:42:27.000Z",1,1,"0.205",1581F5BMD23B4002FY18,3,"4.95","-45.1","31.824105719902555","117.09275101914113",M30T,"-4.8","-0.7","1,917,151,911,515,332,608",1917151940770603000,1,0
14XtgJYBnF7jCuO6He82,"task-uav-data","-","_doc","140.622","2025-04-29T17:42:25.000Z",1,1,"0.198",1581F5BMD23B4002FY18,3,"4.95","-45.3","31.824043426383966","117.09282388850566",M30T,"-5.5","-0.4","1,917,151,911,515,332,608",1917151940770603000,1,0
1YXtgJYBnF7jCuO6Fe9q,"task-uav-data","-","_doc","140.622","2025-04-29T17:42:23.000Z",1,1,"0.194",1581F5BMD23B4002FY18,3,"0.806","-46.2","31.8240031390265","117.09287102828208",M30T,"-12.8","-4.8","1,917,151,911,515,332,608",1917151940770603000,1,0
"04XtgJYBnF7jCuO6De-h","task-uav-data","-","_doc","140.622","2025-04-29T17:42:21.000Z",1,1,"0.193",1581F5BMD23B4002FY18,3,"0.1","-93.9","31.82400129369507","117.09287379576308",M30T,"1.2","-0.9","1,917,151,911,515,332,608",1917151940770603000,1,0
"0YXtgJYBnF7jCuO6Be_e","task-uav-data","-","_doc","140.622","2025-04-29T17:42:19.000Z",1,1,"0.192",1581F5BMD23B4002FY18,3,"1.5","-93.8","31.824002274915678","117.09289105674634",M30T,"6.8","0.3","1,917,151,911,515,332,608",1917151940770603000,1,0
"z4XsgJYBnF7jCuO6_u8t","task-uav-data","-","_doc","140.622","2025-04-29T17:42:17.000Z",2,2,"0.185",1581F5BMD23B4002FY18,3,"4.909","-93.9","31.824006530969477","117.09296602184658",M30T,"-4.9",0,"1,917,151,911,515,332,608",1917151940770603000,1,0
zYXsgJYBnF7jCuO69u8l,"task-uav-data","-","_doc","140.622","2025-04-29T17:42:15.000Z",1,1,"0.175",1581F5BMD23B4002FY18,3,"5.009","-93.9","31.824012897500836","117.09307164073147",M30T,"-4.8",0,"1,917,151,911,515,332,608",1917151940770603000,1,0
y4XsgJYBnF7jCuO67u9Y,"task-uav-data","-","_doc","140.522","2025-04-29T17:42:13.000Z",1,1,"0.165",1581F5BMD23B4002FY18,3,"4.904","-93.9","31.824019148730034","117.09317743029517",M30T,"-5",0,"1,917,151,911,515,332,608",1917151940770603000,1,0
"yYXsgJYBnF7jCuO65u-U","task-uav-data","-","_doc","140.522","2025-04-29T17:42:11.000Z",1,1,"0.155",1581F5BMD23B4002FY18,3,"5.009","-93.9","31.824025456201053","117.0932825697307",M30T,"-4.9","0.3","1,917,151,911,515,332,608",1917151940770603000,1,0
"x4XsgJYBnF7jCuO63u_F","task-uav-data","-","_doc","140.522","2025-04-29T17:42:09.000Z",1,1,"0.145",1581F5BMD23B4002FY18,3,"5.009","-93.9","31.824031833492462","117.09338834396877",M30T,"-4.3","0.2","1,917,151,911,515,332,608",1917151940770603000,1,0
"xYXsgJYBnF7jCuO61-8J","task-uav-data","-","_doc","140.622","2025-04-29T17:42:07.000Z",2,2,"0.135",1581F5BMD23B4002FY18,3,"4.909","-93.9","31.824038048192325","117.09349315317789",M30T,"-4.8","-0.2","1,917,151,911,515,332,608",1917151940770603000,1,0
"w4XsgJYBnF7jCuO6z-8X","task-uav-data","-","_doc","140.522","2025-04-29T17:42:05.000Z",1,1,"0.125",1581F5BMD23B4002FY18,3,"4.909","-93.8","31.824044164698158","117.09359822050243",M30T,"-5.4","-0.2","1,917,151,911,515,332,608",1917151940770603000,1,0
"wYXsgJYBnF7jCuO6x-9G","task-uav-data","-","_doc","140.622","2025-04-29T17:42:03.000Z",1,1,"0.115",1581F5BMD23B4002FY18,3,"4.909","-93.8","31.824050279276435","117.09370216083062",M30T,"-5.4","-0.1","1,917,151,911,515,332,608",1917151940770603000,1,0
"v4XsgJYBnF7jCuO6v--N","task-uav-data","-","_doc","140.622","2025-04-29T17:42:01.000Z",1,1,"0.105",1581F5BMD23B4002FY18,3,"4.909","-93.8","31.8240563876694","117.09380704037622",M30T,"-5.6",0,"1,917,151,911,515,332,608",1917151940770603000,1,0
"vYXsgJYBnF7jCuO6t--t","task-uav-data","-","_doc","140.622","2025-04-29T17:41:59.000Z",1,1,"0.095",1581F5BMD23B4002FY18,3,"4.909","-93.8","31.824062716784738","117.09391164430293",M30T,"-5.1","-0.8","1,917,151,911,515,332,608",1917151940770603000,1,0
"u4XsgJYBnF7jCuO6r-_Y","task-uav-data","-","_doc","140.622","2025-04-29T17:41:57.000Z",1,1,"0.085",1581F5BMD23B4002FY18,3,"4.909","-93.7","31.82406929808447","117.09402022788515",M30T,"-5.8","-0.4","1,917,151,911,515,332,608",1917151940770603000,1,0
uYXsgJYBnF7jCuO6qO8Q,"task-uav-data","-","_doc","140.522","2025-04-29T17:41:55.000Z",1,1,"0.078",1581F5BMD23B4002FY18,3,"1.803","-93.5","31.82407397360459","117.09409753167222",M30T,"-15.3","-1.4","1,917,151,911,515,332,608",1917151940770603000,1,0
t4XsgJYBnF7jCuO6oO88,"task-uav-data","-","_doc","140.822","2025-04-29T17:41:53.000Z",1,1,"0.077",1581F5BMD23B4002FY18,3,0,"-90.3","31.82407446146919","117.09410675107024",M30T,"-0.5","-1","1,917,151,911,515,332,608",1917151940770603000,1,0
tYXsgJYBnF7jCuO6mO9s,"task-uav-data","-","_doc","141.322","2025-04-29T17:41:51.000Z",1,1,"0.077",1581F5BMD23B4002FY18,3,0,"-90.2","31.82407437042855","117.09410660055671",M30T,"-0.7","-0.9","1,917,151,911,515,332,608",1917151940770603000,1,"-0.5"
"s4XsgJYBnF7jCuO6kO-Y","task-uav-data","-","_doc","141.622","2025-04-29T17:41:49.000Z",1,1,"0.077",1581F5BMD23B4002FY18,3,"0.1","-90.2","31.824074311102635","117.09410705024213",M30T,"0.5","-0.5","1,917,151,911,515,332,608",1917151940770603000,1,0
"sYXsgJYBnF7jCuO6iO_D","task-uav-data","-","_doc","141.622","2025-04-29T17:41:47.000Z",1,1,"0.075",1581F5BMD23B4002FY18,3,"1.1","-90.1","31.824074166231757","117.09411843918075",M30T,"5.2","0.3","1,917,151,911,515,332,608",1917151940770603000,1,0
"r4XsgJYBnF7jCuO6gO_4","task-uav-data","-","_doc","141.522","2025-04-29T17:41:45.000Z",1,1,"0.07",1581F5BMD23B4002FY18,3,"4.9","-90.3","31.82407458446873","117.09417871348182",M30T,"0.4","-0.1","1,917,151,911,515,332,608",1917151940770603000,1,0
rYXsgJYBnF7jCuO6ee8m,"task-uav-data","-","_doc","141.522","2025-04-29T17:41:43.000Z",1,1,"0.06",1581F5BMD23B4002FY18,3,"4.9","-90.3","31.824075108023116","117.0942836222267",M30T,"-4.8","-0.4","1,917,151,911,515,332,608",1917151940770603000,1,0
q4XsgJYBnF7jCuO6ce9g,"task-uav-data","-","_doc","141.622","2025-04-29T17:41:41.000Z",1,1,"0.05",1581F5BMD23B4002FY18,3,"4.9","-90.3","31.824075595682114","117.09438830092624",M30T,"-5","-0.7","1,917,151,911,515,332,608",1917151940770603000,1,0
"qYXsgJYBnF7jCuO6ae_K","task-uav-data","-","_doc","141.622","2025-04-29T17:41:39.000Z",2,2,"0.04",1581F5BMD23B4002FY18,3,"4.9","-90.4","31.82407597262654","117.09449374284075",M30T,"-4.6","-0.2","1,917,151,911,515,332,608",1917151940770603000,1,0
"p4XsgJYBnF7jCuO6Ye-7","task-uav-data","-","_doc","141.522","2025-04-29T17:41:37.000Z",1,1,"0.03",1581F5BMD23B4002FY18,3,"4.9","-90.4","31.82407654102875","117.0945988394251",M30T,"-4.5","-0.5","1,917,151,911,515,332,608",1917151940770603000,1,0
"pYXsgJYBnF7jCuO6We_n","task-uav-data","-","_doc","141.622","2025-04-29T17:41:35.000Z",1,1,"0.02",1581F5BMD23B4002FY18,3,"4.9","-90.5","31.82407677077209","117.09470511184607",M30T,"-4.1","-0.3","1,917,151,911,515,332,608",1917151940770603000,1,0
o4XsgJYBnF7jCuO6Uu8p,"task-uav-data","-","_doc","141.522","2025-04-29T17:41:33.000Z",1,1,"0.01",1581F5BMD23B4002FY18,3,"4.9","-90.7","31.824077166285313","117.09481598803745",M30T,"-5.3","-0.8","1,917,151,911,515,332,608",1917151940770603000,1,0
oYXsgJYBnF7jCuO6Su9N,"task-uav-data","-","_doc","141.522","2025-04-29T17:41:31.000Z",1,1,"0.001",1581F5BMD23B4002FY18,3,"2.6","-95.2","31.8240778525212","117.09490203373427",M30T,"-15.1","1.6","1,917,151,911,515,332,608",1917151940770603000,1,0
n4XsgJYBnF7jCuO6Qu91,"task-uav-data","-","_doc","141.422","2025-04-29T17:41:29.000Z",1,1,0,1581F5BMD23B4002FY18,3,0,"139.1","31.824077907593637","117.09491861015971",M30T,"-0.8","-0.9","1,917,151,911,515,332,608",1917151940770603000,1,0
"nYXsgJYBnF7jCuO6Ou-o","task-uav-data","-","_doc","140.722","2025-04-29T17:41:27.000Z",1,1,0,1581F5BMD23B4002FY18,3,0,"139.1","31.824078117984314","117.09491896527761",M30T,"0.1","-0.2","1,917,151,911,515,332,608",1917151940770603000,1,"0.6"
"m4XsgJYBnF7jCuO6Mu_U","task-uav-data","-","_doc","137.422","2025-04-29T17:41:25.000Z",1,1,0,1581F5BMD23B4002FY18,3,0,"139.3","31.82407772004237","117.09491858496322",M30T,"-0.4","-1.3","1,917,151,911,515,332,608",1917151940770603000,1,3
"mYXsgJYBnF7jCuO6K-8H","task-uav-data","-","_doc","128.622","2025-04-29T17:41:23.000Z",1,1,0,1581F5BMD23B4002FY18,3,0,"139.1","31.82407763920921","117.09491851046265",M30T,"0.1","-0.9","1,917,151,911,515,332,608",1917151940770603000,1,"4.9"
"l4XsgJYBnF7jCuO6I-87","task-uav-data","-","_doc","118.822","2025-04-29T17:41:21.000Z",1,1,0,1581F5BMD23B4002FY18,3,0,"139.1","31.824077493524477","117.09491833867979",M30T,0,"-0.6","1,917,151,911,515,332,608",1917151940770603000,1,"4.9"
"lYXsgJYBnF7jCuO6G-9r","task-uav-data","-","_doc","108.722","2025-04-29T17:41:19.000Z",1,1,0,1581F5BMD23B4002FY18,3,0,"139.1","31.824077345530952","117.09491825607026",M30T,"0.1","-0.5","1,917,151,911,515,332,608",1917151940770603000,1,"4.9"
"k4XsgJYBnF7jCuO6E--V","task-uav-data","-","_doc","98.722","2025-04-29T17:41:17.000Z",1,1,0,1581F5BMD23B4002FY18,3,0,"139.1","31.82407731229987","117.09491803202786",M30T,0,"-0.1","1,917,151,911,515,332,608",1917151940770603000,1,5
"kYXsgJYBnF7jCuO6C-_C","task-uav-data","-","_doc","88.622","2025-04-29T17:41:15.000Z",1,1,0,1581F5BMD23B4002FY18,3,0,"139.1","31.824077222282973","117.09491806057808",M30T,"-0.4","0.1","1,917,151,911,515,332,608",1917151940770603000,1,5
j4XsgJYBnF7jCuO6BO8C,"task-uav-data","-","_doc","78.622","2025-04-29T17:41:13.000Z",1,1,0,1581F5BMD23B4002FY18,3,0,"139.2","31.82407709515847","117.09491789613665",M30T,"0.5","0.4","1,917,151,911,515,332,608",1917151940770603000,1,5
"jYXrgJYBnF7jCuO6_O84","task-uav-data","-","_doc","68.722","2025-04-29T17:41:11.000Z",2,2,0,1581F5BMD23B4002FY18,3,0,"139.2","31.824076671764214","117.0949173365581",M30T,"-0.5",0,"1,917,151,911,515,332,608",1917151940770603000,1,5
i4XrgJYBnF7jCuO69O9X,"task-uav-data","-","_doc","59.822","2025-04-29T17:41:09.000Z",1,1,0,1581F5BMD23B4002FY18,3,0,"138.8","31.82407692005493","117.09491786431713",M30T,"0.6","1.6","1,917,151,911,515,332,608",1917151940770603000,1,"2.3"
"iYXrgJYBnF7jCuO67O-I","task-uav-data","-","_doc","58.522","2025-04-29T17:41:07.000Z",1,1,0,1581F5BMD23B4002FY18,3,0,"138.9","31.824076714920064","117.09491726831381",M30T,"0.7","-4.3","1,917,151,911,515,332,608",1917151940770603000,1,"0.3"
"h4XrgJYBnF7jCuO65O_G","task-uav-data","-","_doc","52.822","2025-04-29T17:41:05.000Z",3,3,0,1581F5BMD23B4002FY18,3,"0.224",137,"31.824078133010687","117.09491806393058",M30T,"-3.7",0,"1,917,151,911,515,332,608",1917151940770603000,1,2
hYXrgJYBnF7jCuO63e8l,"task-uav-data","-","_doc","52.622","2025-04-29T17:41:03.000Z",2,2,0,1581F5BMD23B4002FY18,3,0,"139.2","31.82407825059165","117.09491791486388",M30T,4,0,"1,917,151,911,515,332,608",1917151940770603000,1,0
g4XrgJYBnF7jCuO61e8k,"task-uav-data","-","_doc","52.622","2025-04-29T17:41:01.000Z","-","-","5.432,621e-7",1581F5BMD23B4002FY18,3,0,"134.4","31.824078129279794","117.0949179199808",M30T,"3.9","-0.1","1,917,151,911,515,332,608",1917151940770603000,1,0
gYXrgJYBnF7jCuO6ze9M,"task-uav-data","-","_doc","52.616","2025-04-29T17:40:59.000Z","-","-",0,1581F5BMD23B4002FY18,3,0,"134.5","31.82407814491871","117.09491786868416",M30T,"3.8","-0.1","1,917,151,911,515,332,608",1917151940770603000,1,0
f4XrgJYBnF7jCuO6xe96,"task-uav-data","-","_doc","52.614","2025-04-29T17:40:57.000Z","-","-",0,1581F5BMD23B4002FY18,3,0,"134.6","31.82407812473076","117.09491790538242",M30T,"3.8","-0.1","1,917,151,911,515,332,608",1917151940770603000,1,0
"fYXrgJYBnF7jCuO6ve-l","task-uav-data","-","_doc","52.604","2025-04-29T17:40:55.000Z","-","-",0,1581F5BMD23B4002FY18,3,0,"134.5","31.824078132663733","117.09491793511233",M30T,"3.8",0,"1,917,151,911,515,332,608",1917151940770603000,1,0
"e4XrgJYBnF7jCuO6te_f","task-uav-data","-","_doc","52.617","2025-04-29T17:40:53.000Z","-","-",0,1581F5BMD23B4002FY18,3,0,"134.4","31.8240781436251","117.09491790084273",M30T,"3.8","-0.1","1,917,151,911,515,332,608",1917151940770603000,1,0
eYXrgJYBnF7jCuO6ru8L,"task-uav-data","-","_doc","52.621","2025-04-29T17:40:51.000Z","-","-",0,1581F5BMD23B4002FY18,3,0,"134.4","31.8240781599665","117.09491788329262",M30T,"3.8","-0.1","1,917,151,911,515,332,608",1917151940770603000,1,0
d4XrgJYBnF7jCuO6pu83,"task-uav-data","-","_doc","62.103","2025-04-29T17:40:49.000Z","-","-","0.004",1581F5BMD23B4002FY18,3,0,"134.4","31.824078403571114","117.09491770812579",M30T,"3.8","-0.1","1,917,151,911,515,332,608",1917151940770603000,1,0
dYXrgJYBnF7jCuO6nu92,"task-uav-data","-","_doc","62.103","2025-04-29T17:40:47.000Z","-","-",0,1581F5BMD23B4002FY18,3,0,"134.5","31.82411305047223","117.09493386809815",M30T,"3.8","-0.1","1,917,151,911,515,332,608",1917151940770603000,1,0
