"_id","_index","_score","_type",altitude,createTime,currentFlightDuration,"currentFlightDuration.keyword",currentFlightMileage,droneSN,droneType,groundSpeed,heading,latitude,longitude,model,pitch,roll,taskId,taskLogId,taskName,verticalSpeed
hIUCgZYBnF7jCuO6wPI9,"task-uav-data","-","_doc","52.634","2025-04-29T18:06:03.000Z","-","-",0,1581F5BMD23B4002FY15,3,0,"134.9","31.8240780442546","117.09491802690825",M30T,"3.6","-0.2","1,917,156,821,996,740,608",1917156852447387600,dfdf,0
goUCgZYBnF7jCuO6uPJr,"task-uav-data","-","_doc","52.634","2025-04-29T18:06:01.000Z","-","-",0,1581F5BMD23B4002FY15,3,0,"135.1","31.824078019007874","117.09491791186785",M30T,"3.6","-0.2","1,917,156,821,996,740,608",1917156852447387600,dfdf,0
gIUCgZYBnF7jCuO6sPKb,"task-uav-data","-","_doc","52.634","2025-04-29T18:05:59.000Z","-","-",0,1581F5BMD23B4002FY15,3,0,"134.6","31.824078165969166","117.09491797242293",M30T,"3.6","-0.2","1,917,156,821,996,740,608",1917156852447387600,dfdf,0
foUCgZYBnF7jCuO6qPLO,"task-uav-data","-","_doc","52.634","2025-04-29T18:05:57.000Z","-","-",0,1581F5BMD23B4002FY15,3,0,"134.8","31.824078129996654","117.09491792790304",M30T,"3.6","-0.2","1,917,156,821,996,740,608",1917156852447387600,dfdf,0
fIUCgZYBnF7jCuO6oPL7,"task-uav-data","-","_doc","52.634","2025-04-29T18:05:55.000Z","-","-",0,1581F5BMD23B4002FY15,3,0,"134.8","31.824078089376588","117.09491797634757",M30T,"3.6","-0.3","1,917,156,821,996,740,608",1917156852447387600,dfdf,0
eoUCgZYBnF7jCuO6mfJB,"task-uav-data","-","_doc","52.634","2025-04-29T18:05:53.000Z","-","-",0,1581F5BMD23B4002FY15,3,0,"134.7","31.8240780775371","117.09491788481992",M30T,"3.5","-0.4","1,917,156,821,996,740,608",1917156852447387600,dfdf,0
eIUCgZYBnF7jCuO6kfJc,"task-uav-data","-","_doc","52.634","2025-04-29T18:05:51.000Z","-","-",0,1581F5BMD23B4002FY15,3,0,"134.8","31.824078108395152","117.0949179304716",M30T,"3.5","-0.4","1,917,156,821,996,740,608",1917156852447387600,dfdf,0
doUCgZYBnF7jCuO6ifKL,"task-uav-data","-","_doc","52.634","2025-04-29T18:05:49.000Z","-","-",0,1581F5BMD23B4002FY15,3,0,"134.7","31.82407808957791","117.09491797198811",M30T,"3.5","-0.4","1,917,156,821,996,740,608",1917156852447387600,dfdf,0
dIUCgZYBnF7jCuO6gfLG,"task-uav-data","-","_doc","52.634","2025-04-29T18:05:47.000Z","-","-",0,1581F5BMD23B4002FY15,3,0,"134.7","31.82407810510974","117.09491794019628",M30T,"3.5","-0.4","1,917,156,821,996,740,608",1917156852447387600,dfdf,0
coUCgZYBnF7jCuO6efLl,"task-uav-data","-","_doc","52.634","2025-04-29T18:05:45.000Z","-","-",0,1581F5BMD23B4002FY15,3,0,"134.7","31.824078100535","117.09491796713459",M30T,"3.5","-0.4","1,917,156,821,996,740,608",1917156852447387600,dfdf,0
cIUCgZYBnF7jCuO6cvIY,"task-uav-data","-","_doc","52.634","2025-04-29T18:05:43.000Z","-","-",0,1581F5BMD23B4002FY15,3,0,"134.7","31.82407809749803","117.09491794016228",M30T,"3.5","-0.4","1,917,156,821,996,740,608",1917156852447387600,dfdf,0
boUCgZYBnF7jCuO6avJO,"task-uav-data","-","_doc","52.634","2025-04-29T18:05:41.000Z","-","-",0,1581F5BMD23B4002FY15,3,0,"134.7","31.82407811422923","117.0949179488308",M30T,"3.5","-0.4","1,917,156,821,996,740,608",1917156852447387600,dfdf,0
bIUCgZYBnF7jCuO6YvJ6,"task-uav-data","-","_doc","52.634","2025-04-29T18:05:39.000Z","-","-","1.8,180,448e-7",1581F5BMD23B4002FY15,3,0,"134.7","31.82407806469956","117.09491782746608",M30T,"3.5","-0.3","1,917,156,821,996,740,608",1917156852447387600,dfdf,0
aoUCgZYBnF7jCuO6WvK9,"task-uav-data","-","_doc","52.634","2025-04-29T18:05:37.000Z","-","-",0,1581F5BMD23B4002FY15,3,0,"134.8","31.82407795222442","117.09491783722733",M30T,"3.5","-0.3","1,917,156,821,996,740,608",1917156852447387600,dfdf,0
aIUCgZYBnF7jCuO6UvLa,"task-uav-data","-","_doc","52.634","2025-04-29T18:05:35.000Z","-","-",0,1581F5BMD23B4002FY15,3,0,"134.8","31.824078067012632","117.09491768744091",M30T,"3.5","-0.4","1,917,156,821,996,740,608",1917156852447387600,dfdf,0
"ZoUCgZYBnF7jCuO6S_In","task-uav-data","-","_doc","52.634","2025-04-29T18:05:33.000Z","-","-",0,1581F5BMD23B4002FY15,3,0,"134.9","31.824078096876928","117.0949176817442",M30T,"3.5","-0.4","1,917,156,821,996,740,608",1917156852447387600,dfdf,0
"ZIUCgZYBnF7jCuO6Q_I4","task-uav-data","-","_doc","52.634","2025-04-29T18:05:31.000Z","-","-",0,1581F5BMD23B4002FY15,3,0,"134.5","31.824078029772217","117.09491761686368",M30T,"3.5","-0.4","1,917,156,821,996,740,608",1917156852447387600,dfdf,0
"YoUCgZYBnF7jCuO6O_Jx","task-uav-data","-","_doc","52.634","2025-04-29T18:05:29.000Z","-","-",0,1581F5BMD23B4002FY15,3,0,"134.1","31.82407803176831","117.09491762759542",M30T,"3.5","-0.5","1,917,156,821,996,740,608",1917156852447387600,dfdf,0
"YIUCgZYBnF7jCuO6M_Kv","task-uav-data","-","_doc","52.634","2025-04-29T18:05:27.000Z","-","-",0,1581F5BMD23B4002FY15,3,0,"134.2","31.824078001895444","117.09491755250369",M30T,"3.5","-0.4","1,917,156,821,996,740,608",1917156852447387600,dfdf,0
"XoUCgZYBnF7jCuO6K_LO","task-uav-data","-","_doc","52.634","2025-04-29T18:05:25.000Z","-","-",0,1581F5BMD23B4002FY15,3,0,"134.1","31.82407802833725","117.09491761584157",M30T,"3.5","-0.4","1,917,156,821,996,740,608",1917156852447387600,dfdf,0
"XIUCgZYBnF7jCuO6I_L5","task-uav-data","-","_doc","52.634","2025-04-29T18:05:23.000Z","-","-",0,1581F5BMD23B4002FY15,3,0,"134.1","31.824078028422925","117.09491756642656",M30T,"3.4","-0.4","1,917,156,821,996,740,608",1917156852447387600,dfdf,0
WoUCgZYBnF7jCuO6HPI3,"task-uav-data","-","_doc","52.634","2025-04-29T18:05:21.000Z","-","-",0,1581F5BMD23B4002FY15,3,0,"134.1","31.82407799783472","117.09491765818109",M30T,"3.4","-0.4","1,917,156,821,996,740,608",1917156852447387600,dfdf,0
WIUCgZYBnF7jCuO6FPJh,"task-uav-data","-","_doc","52.634","2025-04-29T18:05:19.000Z","-","-",0,1581F5BMD23B4002FY15,3,0,"134.1","31.824078034663927","117.09491760047689",M30T,"3.5","-0.4","1,917,156,821,996,740,608",1917156852447387600,dfdf,0
VoUCgZYBnF7jCuO6DPKK,"task-uav-data","-","_doc","52.634","2025-04-29T18:05:17.000Z","-","-",0,1581F5BMD23B4002FY15,3,0,"134.3","31.824077983729282","117.09491756518388",M30T,"3.6","-0.4","1,917,156,821,996,740,608",1917156852447387600,dfdf,0
"VIUCgZYBnF7jCuO6BPK-","task-uav-data","-","_doc","52.534","2025-04-29T18:05:15.000Z","-","-",0,1581F5BMD23B4002FY15,3,0,"134.2","31.824077850650692","117.09491748499285",M30T,"3.7","-0.4","1,917,156,821,996,740,608",1917156852447387600,dfdf,0
"UoUBgZYBnF7jCuO6_PLt","task-uav-data","-","_doc","53.234","2025-04-29T18:05:13.000Z","-","-",0,1581F5BMD23B4002FY15,3,0,"134.9","31.824077953650818","117.09491776263596",M30T,0,"0.3","1,917,156,821,996,740,608",1917156852447387600,dfdf,"-0.4"
UIUBgZYBnF7jCuO69fIh,"task-uav-data","-","_doc","54.134","2025-04-29T18:05:11.000Z","-","-",0,1581F5BMD23B4002FY15,3,0,"134.9","31.824077886143456","117.09491771402759",M30T,"-0.1","-0.2","1,917,156,821,996,740,608",1917156852447387600,dfdf,"-0.4"
ToUBgZYBnF7jCuO67fJX,"task-uav-data","-","_doc","54.934","2025-04-29T18:05:09.000Z","-","-",0,1581F5BMD23B4002FY15,3,0,"134.9","31.824077988779486","117.09491779570074",M30T,"-0.2",0,"1,917,156,821,996,740,608",1917156852447387600,dfdf,"-0.4"
TIUBgZYBnF7jCuO65fJ5,"task-uav-data","-","_doc","55.634","2025-04-29T18:05:07.000Z","-","-",0,1581F5BMD23B4002FY15,3,0,"134.9","31.824078026516784","117.09491783195537",M30T,"-0.4","0.1","1,917,156,821,996,740,608",1917156852447387600,dfdf,"-0.4"
SoUBgZYBnF7jCuO63fKx,"task-uav-data","-","_doc","56.434","2025-04-29T18:05:05.000Z","-","-",0,1581F5BMD23B4002FY15,3,0,135,"31.82407802789606","117.094917885227",M30T,0,"0.2","1,917,156,821,996,740,608",1917156852447387600,dfdf,"-0.3"
SIUBgZYBnF7jCuO61fLe,"task-uav-data","-","_doc","57.234","2025-04-29T18:05:03.000Z","-","-",0,1581F5BMD23B4002FY15,3,0,135,"31.824078100513585","117.09491782481057",M30T,"-0.1","0.3","1,917,156,821,996,740,608",1917156852447387600,dfdf,"-0.4"
RoUBgZYBnF7jCuO6zvIO,"task-uav-data","-","_doc","58.134","2025-04-29T18:05:01.000Z","-","-",0,1581F5BMD23B4002FY15,3,0,"134.9","31.824078087911644","117.09491774844591",M30T,"-0.1","0.2","1,917,156,821,996,740,608",1917156852447387600,dfdf,"-0.4"
RIUBgZYBnF7jCuO6xvJF,"task-uav-data","-","_doc","58.834","2025-04-29T18:04:59.000Z","-","-",0,1581F5BMD23B4002FY15,3,0,"134.9","31.824077962453327","117.09491782511304",M30T,0,"0.2","1,917,156,821,996,740,608",1917156852447387600,dfdf,"-0.3"
QoUBgZYBnF7jCuO6vvJu,"task-uav-data","-","_doc","59.634","2025-04-29T18:04:57.000Z","-","-",0,1581F5BMD23B4002FY15,3,0,135,"31.8240780509625","117.09491770639376",M30T,0,0,"1,917,156,821,996,740,608",1917156852447387600,dfdf,"-0.4"
QIUBgZYBnF7jCuO6tvKh,"task-uav-data","-","_doc","60.434","2025-04-29T18:04:55.000Z","-","-",0,1581F5BMD23B4002FY15,3,0,135,"31.824078142907005","117.0949178271573",M30T,"0.2","0.3","1,917,156,821,996,740,608",1917156852447387600,dfdf,"-0.4"
PoUBgZYBnF7jCuO6rvLK,"task-uav-data","-","_doc","61.434","2025-04-29T18:04:53.000Z","-","-",0,1581F5BMD23B4002FY15,3,0,135,"31.824078209574807","117.09491768133337",M30T,0,"0.2","1,917,156,821,996,740,608",1917156852447387600,dfdf,"-0.5"
PIUBgZYBnF7jCuO6pvL6,"task-uav-data","-","_doc","62.934","2025-04-29T18:04:51.000Z","-","-",0,1581F5BMD23B4002FY15,3,0,"135.2","31.82407820225009","117.09491738481427",M30T,0,"0.2","1,917,156,821,996,740,608",1917156852447387600,dfdf,"-0.8"
"OoUBgZYBnF7jCuO6n_In","task-uav-data","-","_doc","64.934","2025-04-29T18:04:49.000Z","-","-",0,1581F5BMD23B4002FY15,3,0,"135.4","31.824077846273","117.09491787244347",M30T,1,"-0.3","1,917,156,821,996,740,608",1917156852447387600,dfdf,"-1.2"
"OIUBgZYBnF7jCuO6l_Jx","task-uav-data","-","_doc","67.834","2025-04-29T18:04:47.000Z","-","-",0,1581F5BMD23B4002FY15,3,0,"134.5","31.824078162165453","117.09491890766333",M30T,"1.3","2.3","1,917,156,821,996,740,608",1917156852447387600,dfdf,"-1.7"
"NoUBgZYBnF7jCuO6j_KK","task-uav-data","-","_doc","72.134","2025-04-29T18:04:45.000Z","-","-",0,1581F5BMD23B4002FY15,3,0,"134.4","31.824078000798877","117.09491790026273",M30T,"-0.2",0,"1,917,156,821,996,740,608",1917156852447387600,dfdf,"-2.5"
"NIUBgZYBnF7jCuO6h_K3","task-uav-data","-","_doc","77.934","2025-04-29T18:04:43.000Z","-","-",0,1581F5BMD23B4002FY15,3,0,"134.6","31.824078327841185","117.09491704497135",M30T,"-2.8","0.1","1,917,156,821,996,740,608",1917156852447387600,dfdf,"-3.1"
"MoUBgZYBnF7jCuO6f_L1","task-uav-data","-","_doc","84.434","2025-04-29T18:04:41.000Z","-","-",0,1581F5BMD23B4002FY15,3,0,"135.3","31.824078066228758","117.09491772508446",M30T,"-1.1","0.8","1,917,156,821,996,740,608",1917156852447387600,dfdf,"-3.3"
MIUBgZYBnF7jCuO6ePIc,"task-uav-data","-","_doc","91.434","2025-04-29T18:04:39.000Z","-","-",0,1581F5BMD23B4002FY15,3,0,"134.6","31.824077995705842","117.09491791524678",M30T,"1.4",1,"1,917,156,821,996,740,608",1917156852447387600,dfdf,"-3.5"
LoUBgZYBnF7jCuO6cPJO,"task-uav-data","-","_doc","99.034","2025-04-29T18:04:37.000Z","-","-",0,1581F5BMD23B4002FY15,3,0,"136.1","31.82407781936001","117.094917805002",M30T,"0.4","-0.9","1,917,156,821,996,740,608",1917156852447387600,dfdf,"-3.8"
LIUBgZYBnF7jCuO6aPJ5,"task-uav-data","-","_doc","106.934","2025-04-29T18:04:35.000Z","-","-",0,1581F5BMD23B4002FY15,3,"0.1",135,"31.8240786056451","117.094917465338",M30T,"0.7","0.6","1,917,156,821,996,740,608",1917156852447387600,dfdf,"-3.9"
KoUBgZYBnF7jCuO6YPKp,"task-uav-data","-","_doc","114.934","2025-04-29T18:04:33.000Z","-","-",0,1581F5BMD23B4002FY15,3,"0.1","135.4","31.82407779616934","117.09491764129898",M30T,"1.2","-1.2","1,917,156,821,996,740,608",1917156852447387600,dfdf,"-3.9"
KIUBgZYBnF7jCuO6WPLk,"task-uav-data","-","_doc","123.034","2025-04-29T18:04:31.000Z","-","-",0,1581F5BMD23B4002FY15,3,"0.141","134.6","31.8240786233358","117.09491737873697",M30T,2,"1.4","1,917,156,821,996,740,608",1917156852447387600,dfdf,"-3.9"
JoUBgZYBnF7jCuO6UfIi,"task-uav-data","-","_doc","130.934","2025-04-29T18:04:29.000Z","-","-",0,1581F5BMD23B4002FY15,3,"0.2","135.6","31.824077892547237","117.09491710293392",M30T,"-0.5","1.2","1,917,156,821,996,740,608",1917156852447387600,dfdf,"-4"
JIUBgZYBnF7jCuO6SfI8,"task-uav-data","-","_doc","138.934","2025-04-29T18:04:27.000Z","-","-",0,1581F5BMD23B4002FY15,3,0,"134.7","31.82407789884392","117.09491703000369",M30T,1,"0.6","1,917,156,821,996,740,608",1917156852447387600,dfdf,"-3.7"
IoUBgZYBnF7jCuO6QfJy,"task-uav-data","-","_doc","144.134","2025-04-29T18:04:25.000Z","-","-",0,1581F5BMD23B4002FY15,3,0,"134.9","31.8240785383305","117.09491735208854",M30T,"-0.5","0.1","1,917,156,821,996,740,608",1917156852447387600,dfdf,"-1.6"
IIUBgZYBnF7jCuO6OfKg,"task-uav-data","-","_doc","145.634","2025-04-29T18:04:23.000Z",1,1,0,1581F5BMD23B4002FY15,3,"0.2","131.4","31.824078611222163","117.0949197217054",M30T,"0.4","-0.3","1,917,156,821,996,740,608",1917156852447387600,dfdf,0
HoUBgZYBnF7jCuO6MfLS,"task-uav-data","-","_doc","145.634","2025-04-29T18:04:21.000Z",1,1,0,1581F5BMD23B4002FY15,3,"0.922","71.9","31.824077451611963","117.09491556761641",M30T,6,"-0.1","1,917,156,821,996,740,608",1917156852447387600,dfdf,0
HIUBgZYBnF7jCuO6KfL6,"task-uav-data","-","_doc","145.534","2025-04-29T18:04:19.000Z",1,1,"0.005",1581F5BMD23B4002FY15,3,"3.353","71.9","31.82406488371233","117.09487077816567",M30T,"6.9","0.3","1,917,156,821,996,740,608",1917156852447387600,dfdf,0
GoUBgZYBnF7jCuO6IvIq,"task-uav-data","-","_doc","145.634","2025-04-29T18:04:17.000Z",1,1,"0.014",1581F5BMD23B4002FY15,3,"4.838",72,"31.82403885762553","117.0947801648812",M30T,"-4.8",0,"1,917,156,821,996,740,608",1917156852447387600,dfdf,0
GIUBgZYBnF7jCuO6GvJe,"task-uav-data","-","_doc","145.634","2025-04-29T18:04:15.000Z",1,1,"0.023",1581F5BMD23B4002FY15,3,"4.111","72.1","31.82401229491092","117.09468826043404",M30T,"-8.4","-0.5","1,917,156,821,996,740,608",1917156852447387600,dfdf,0
FoUBgZYBnF7jCuO6EvKQ,"task-uav-data","-","_doc","145.634","2025-04-29T18:04:13.000Z",1,1,"0.028",1581F5BMD23B4002FY15,3,"1.487","72.5","31.82399655285474","117.09463379208063",M30T,"-6.3","-0.5","1,917,156,821,996,740,608",1917156852447387600,dfdf,0
"FIUBgZYBnF7jCuO6CvK_","task-uav-data","-","_doc","145.534","2025-04-29T18:04:11.000Z",1,1,"0.03",1581F5BMD23B4002FY15,3,0,"76.3","31.823992608411817","117.09461964696443",M30T,"-2.4","-0.1","1,917,156,821,996,740,608",1917156852447387600,dfdf,0
EoUBgZYBnF7jCuO6AvL7,"task-uav-data","-","_doc","145.634","2025-04-29T18:04:09.000Z",1,1,"0.03",1581F5BMD23B4002FY15,3,0,"128.3","31.82399266304309","117.09461982958119",M30T,"0.2","0.3","1,917,156,821,996,740,608",1917156852447387600,dfdf,0
"EIUAgZYBnF7jCuO6-_IY","task-uav-data","-","_doc","145.634","2025-04-29T18:04:07.000Z",1,1,"0.03",1581F5BMD23B4002FY15,3,0,"128.3","31.82399303224323","117.09462014619622",M30T,"0.8","0.5","1,917,156,821,996,740,608",1917156852447387600,dfdf,0
"DoUAgZYBnF7jCuO68_Jj","task-uav-data","-","_doc","145.634","2025-04-29T18:04:05.000Z",2,2,"0.03",1581F5BMD23B4002FY15,3,"0.64","128.3","31.82399707094801","117.09461392901903",M30T,"3.5","0.2","1,917,156,821,996,740,608",1917156852447387600,dfdf,0
"DIUAgZYBnF7jCuO66_J6","task-uav-data","-","_doc","145.534","2025-04-29T18:04:03.000Z",1,1,"0.032",1581F5BMD23B4002FY15,3,"3.701","128.2","31.824019004525464","117.09458104039733",M30T,"7.9","0.3","1,917,156,821,996,740,608",1917156852447387600,dfdf,0
"CoUAgZYBnF7jCuO64_LC","task-uav-data","-","_doc","145.634","2025-04-29T18:04:01.000Z",2,2,"0.038",1581F5BMD23B4002FY15,3,"3.92","128.3","31.824062893873","117.0945154734375",M30T,"-3.3",0,"1,917,156,821,996,740,608",1917156852447387600,dfdf,0
"CIUAgZYBnF7jCuO62_LW","task-uav-data","-","_doc","145.534","2025-04-29T18:03:59.000Z",1,1,"0.044",1581F5BMD23B4002FY15,3,"3.92","128.3","31.82410738334637","117.0944494774412",M30T,"-3.2","0.6","1,917,156,821,996,740,608",1917156852447387600,dfdf,0
BoUAgZYBnF7jCuO61PIS,"task-uav-data","-","_doc","145.634","2025-04-29T18:03:57.000Z",1,1,"0.051",1581F5BMD23B4002FY15,3,"3.92","128.3","31.824151595182887","117.09438359066004",M30T,"-3.3","0.3","1,917,156,821,996,740,608",1917156852447387600,dfdf,0
BIUAgZYBnF7jCuO6zPI6,"task-uav-data","-","_doc","145.534","2025-04-29T18:03:55.000Z",1,1,"0.058",1581F5BMD23B4002FY15,3,"3.92","128.3","31.824195904943622","117.09431746153257",M30T,"-3.3","0.5","1,917,156,821,996,740,608",1917156852447387600,dfdf,0
AoUAgZYBnF7jCuO6xPJr,"task-uav-data","-","_doc","145.634","2025-04-29T18:03:53.000Z",1,1,"0.065",1581F5BMD23B4002FY15,3,"3.92","128.3","31.824240114081555","117.09425152236203",M30T,"-3.3","0.3","1,917,156,821,996,740,608",1917156852447387600,dfdf,0
AIUAgZYBnF7jCuO6vPKb,"task-uav-data","-","_doc","145.534","2025-04-29T18:03:51.000Z",1,1,"0.073",1581F5BMD23B4002FY15,3,"3.92","128.3","31.824284252619474","117.09418564207411",M30T,"-3.4","0.1","1,917,156,821,996,740,608",1917156852447387600,dfdf,0
"_oUAgZYBnF7jCuO6tPHJ","task-uav-data","-","_doc","145.534","2025-04-29T18:03:49.000Z",1,1,"0.08",1581F5BMD23B4002FY15,3,"3.92","128.3","31.824328723828167","117.094119522142",M30T,"-3.3","0.3","1,917,156,821,996,740,608",1917156852447387600,dfdf,0
"_IUAgZYBnF7jCuO6rPH5","task-uav-data","-","_doc","145.534","2025-04-29T18:03:47.000Z",1,1,"0.088",1581F5BMD23B4002FY15,3,"3.92","128.3","31.824372777210858","117.09405364411256",M30T,"-3.4",0,"1,917,156,821,996,740,608",1917156852447387600,dfdf,0
"-oUAgZYBnF7jCuO6pfEp","task-uav-data","-","_doc","145.534","2025-04-29T18:03:45.000Z",1,1,"0.096",1581F5BMD23B4002FY15,3,"3.92","128.4","31.824417295400565","117.09398725146522",M30T,"-3.4",0,"1,917,156,821,996,740,608",1917156852447387600,dfdf,0
"-IUAgZYBnF7jCuO6nfFb","task-uav-data","-","_doc","145.534","2025-04-29T18:03:43.000Z",1,1,"0.103",1581F5BMD23B4002FY15,3,"3.92","128.4","31.824461742690406","117.0939212959205",M30T,"-3.5","0.4","1,917,156,821,996,740,608",1917156852447387600,dfdf,0
9oUAgZYBnF7jCuO6lfGe,"task-uav-data","-","_doc","145.534","2025-04-29T18:03:41.000Z",1,1,"0.111",1581F5BMD23B4002FY15,3,"3.92","128.4","31.8245064027141","117.09385467274367",M30T,"-3.4","0.5","1,917,156,821,996,740,608",1917156852447387600,dfdf,0
9IUAgZYBnF7jCuO6jfG2,"task-uav-data","-","_doc","145.534","2025-04-29T18:03:39.000Z",1,1,"0.119",1581F5BMD23B4002FY15,3,"3.92","128.5","31.824551038990272","117.09378794865982",M30T,"-3.2","0.3","1,917,156,821,996,740,608",1917156852447387600,dfdf,0
8oUAgZYBnF7jCuO6hfHq,"task-uav-data","-","_doc","145.634","2025-04-29T18:03:37.000Z",1,1,"0.127",1581F5BMD23B4002FY15,3,"3.92","128.7","31.824596131369464","117.09372134943938",M30T,"-4.2","0.8","1,917,156,821,996,740,608",1917156852447387600,dfdf,0
8IUAgZYBnF7jCuO6fvEZ,"task-uav-data","-","_doc","145.634","2025-04-29T18:03:35.000Z",1,1,"0.134",1581F5BMD23B4002FY15,3,"1.803","139.2","31.8246345859592","117.09366322931528",M30T,"-15.9","-3.2","1,917,156,821,996,740,608",1917156852447387600,dfdf,0
7oUAgZYBnF7jCuO6dvFH,"task-uav-data","-","_doc","145.534","2025-04-29T18:03:33.000Z",1,1,"0.135",1581F5BMD23B4002FY15,3,0,"-101.3","31.824639433227357","117.093656143559",M30T,0,"-0.3","1,917,156,821,996,740,608",1917156852447387600,dfdf,0
7IUAgZYBnF7jCuO6bvGB,"task-uav-data","-","_doc","145.634","2025-04-29T18:03:31.000Z",1,1,"0.134",1581F5BMD23B4002FY15,3,"0.4","-101.3","31.824640573759023","117.09366158576444",M30T,"1.5","-0.6","1,917,156,821,996,740,608",1917156852447387600,dfdf,0
6oUAgZYBnF7jCuO6ZvGp,"task-uav-data","-","_doc","145.534","2025-04-29T18:03:29.000Z",1,1,"0.132",1581F5BMD23B4002FY15,3,"2.746","-101.4","31.824645695854095","117.09369131704793",M30T,"8.7","-1","1,917,156,821,996,740,608",1917156852447387600,dfdf,0
6IUAgZYBnF7jCuO6XvHZ,"task-uav-data","-","_doc","145.534","2025-04-29T18:03:27.000Z",1,1,"0.126",1581F5BMD23B4002FY15,3,"3.864","-101.3","31.824658976470364","117.09377018232341",M30T,"-4.2","-0.6","1,917,156,821,996,740,608",1917156852447387600,dfdf,0
"5oUAgZYBnF7jCuO6V_EN","task-uav-data","-","_doc","145.634","2025-04-29T18:03:25.000Z",1,1,"0.121",1581F5BMD23B4002FY15,3,"3.864","-101.3","31.824672918316054","117.0938519536575",M30T,"-4.4","-0.2","1,917,156,821,996,740,608",1917156852447387600,dfdf,0
"5IUAgZYBnF7jCuO6T_FB","task-uav-data","-","_doc","145.634","2025-04-29T18:03:23.000Z",1,1,"0.115",1581F5BMD23B4002FY15,3,"3.864","-101.3","31.82468696539784","117.09393440609408",M30T,"-4.2","-0.5","1,917,156,821,996,740,608",1917156852447387600,dfdf,0
"4oUAgZYBnF7jCuO6R_Fx","task-uav-data","-","_doc","145.534","2025-04-29T18:03:21.000Z",1,1,"0.11",1581F5BMD23B4002FY15,3,"3.864","-101.3","31.8247009169413","117.09401649773343",M30T,"-4.2","-0.7","1,917,156,821,996,740,608",1917156852447387600,dfdf,0
"4IUAgZYBnF7jCuO6P_Gb","task-uav-data","-","_doc","145.634","2025-04-29T18:03:19.000Z",1,1,"0.105",1581F5BMD23B4002FY15,3,"3.864","-101.4","31.824714822908717","117.09409828374788",M30T,"-4.3","-0.5","1,917,156,821,996,740,608",1917156852447387600,dfdf,0
"3oUAgZYBnF7jCuO6N_HV","task-uav-data","-","_doc","145.534","2025-04-29T18:03:17.000Z",1,1,"0.1",1581F5BMD23B4002FY15,3,"3.864","-101.4","31.8247288033741","117.09418090073311",M30T,"-4.4","-0.2","1,917,156,821,996,740,608",1917156852447387600,dfdf,0
"3IUAgZYBnF7jCuO6L_H6","task-uav-data","-","_doc","145.634","2025-04-29T18:03:15.000Z",1,1,"0.096",1581F5BMD23B4002FY15,3,"3.864","-101.5","31.824742871907468","117.0942629935421",M30T,"-4.1","-0.3","1,917,156,821,996,740,608",1917156852447387600,dfdf,0
2oUAgZYBnF7jCuO6KPEn,"task-uav-data","-","_doc","145.634","2025-04-29T18:03:13.000Z",1,1,"0.093",1581F5BMD23B4002FY15,3,"3.864","-101.5","31.82475709313767","117.094345101959",M30T,"-4.3","-1.1","1,917,156,821,996,740,608",1917156852447387600,dfdf,0
2IUAgZYBnF7jCuO6IPFc,"task-uav-data","-","_doc","145.534","2025-04-29T18:03:11.000Z",1,1,"0.09",1581F5BMD23B4002FY15,3,"3.864","-101.7","31.82477077595387","117.09442575754824",M30T,"-8","-1","1,917,156,821,996,740,608",1917156852447387600,dfdf,0
1oUAgZYBnF7jCuO6GPGI,"task-uav-data","-","_doc","145.634","2025-04-29T18:03:09.000Z",1,1,"0.089",1581F5BMD23B4002FY15,3,0,"-102.7","31.824776246996866","117.09445988796793",M30T,"-2.7","-0.1","1,917,156,821,996,740,608",1917156852447387600,dfdf,0
1IUAgZYBnF7jCuO6EPG9,"task-uav-data","-","_doc","145.634","2025-04-29T18:03:07.000Z",1,1,"0.089",1581F5BMD23B4002FY15,3,"0.1","-106.9","31.824776911516","117.09446227739214",M30T,"0.2","-0.4","1,917,156,821,996,740,608",1917156852447387600,dfdf,0
0oUAgZYBnF7jCuO6CPH9,"task-uav-data","-","_doc","145.634","2025-04-29T18:03:05.000Z",1,1,"0.089",1581F5BMD23B4002FY15,3,"1.334","-106.9","31.82478071612102","117.09447639865279",M30T,"4.2","-0.5","1,917,156,821,996,740,608",1917156852447387600,dfdf,0
0IUAgZYBnF7jCuO6AfEb,"task-uav-data","-","_doc","145.534","2025-04-29T18:03:03.000Z",1,1,"0.088",1581F5BMD23B4002FY15,3,"3.956","-106.8","31.824796080452977","117.09453638555739",M30T,"-4.2","-0.3","1,917,156,821,996,740,608",1917156852447387600,dfdf,0
"zoX_gJYBnF7jCuO6-fFQ","task-uav-data","-","_doc","145.534","2025-04-29T18:03:01.000Z",1,1,"0.087",1581F5BMD23B4002FY15,3,"3.86","-106.9","31.82481690602737","117.09461691438769",M30T,"-4.3","-0.1","1,917,156,821,996,740,608",1917156852447387600,dfdf,0
"zIX_gJYBnF7jCuO68fGJ","task-uav-data","-","_doc","145.634","2025-04-29T18:02:59.000Z",1,1,"0.087",1581F5BMD23B4002FY15,3,"3.86","-106.8","31.82483773886652","117.09469718740125",M30T,"-4.4","-0.6","1,917,156,821,996,740,608",1917156852447387600,dfdf,0
"yoX_gJYBnF7jCuO66fGv","task-uav-data","-","_doc","145.534","2025-04-29T18:02:57.000Z",1,1,"0.088",1581F5BMD23B4002FY15,3,"3.86","-106.8","31.82485847596173","117.09477734780182",M30T,"-4.3","-0.5","1,917,156,821,996,740,608",1917156852447387600,dfdf,0
"yIX_gJYBnF7jCuO64fHj","task-uav-data","-","_doc","145.534","2025-04-29T18:02:55.000Z",1,1,"0.089",1581F5BMD23B4002FY15,3,"3.956","-106.8","31.82487930133052","117.09485786191146",M30T,"-4.4","-0.7","1,917,156,821,996,740,608",1917156852447387600,dfdf,0
"xoX_gJYBnF7jCuO62vEZ","task-uav-data","-","_doc","145.534","2025-04-29T18:02:53.000Z",1,1,"0.091",1581F5BMD23B4002FY15,3,"3.956","-106.8","31.82490001998971","117.09493806476185",M30T,"-4.3","-0.5","1,917,156,821,996,740,608",1917156852447387600,dfdf,0
"xIX_gJYBnF7jCuO60vE9","task-uav-data","-","_doc","145.534","2025-04-29T18:02:51.000Z",1,1,"0.094",1581F5BMD23B4002FY15,3,"3.86","-106.8","31.82492084960769","117.09501840808987",M30T,"-4.6","-0.9","1,917,156,821,996,740,608",1917156852447387600,dfdf,0
"woX_gJYBnF7jCuO6yvFz","task-uav-data","-","_doc","145.534","2025-04-29T18:02:49.000Z",1,1,"0.097",1581F5BMD23B4002FY15,3,"3.86","-106.6","31.824941428797363","117.09509866885304",M30T,"-4.8","-0.3","1,917,156,821,996,740,608",1917156852447387600,dfdf,0
"wIX_gJYBnF7jCuO6wvGl","task-uav-data","-","_doc","145.634","2025-04-29T18:02:47.000Z",1,1,"0.101",1581F5BMD23B4002FY15,3,"3.448","-106.4","31.824961641665386","117.09517605100251",M30T,"-17.3","-1","1,917,156,821,996,740,608",1917156852447387600,dfdf,0
"voX_gJYBnF7jCuO6uvHI","task-uav-data","-","_doc","145.634","2025-04-29T18:02:45.000Z",1,1,"0.102",1581F5BMD23B4002FY15,3,0,"-102.7","31.824967483621908","117.09519971300097",M30T,"-0.5","0.2","1,917,156,821,996,740,608",1917156852447387600,dfdf,0
"vIX_gJYBnF7jCuO6svH5","task-uav-data","-","_doc","145.634","2025-04-29T18:02:43.000Z",1,1,"0.103",1581F5BMD23B4002FY15,3,"0.2","-97.4","31.82496807460257","117.09520327308006",M30T,"0.7","-0.2","1,917,156,821,996,740,608",1917156852447387600,dfdf,0
"uoX_gJYBnF7jCuO6q_E0","task-uav-data","-","_doc","145.634","2025-04-29T18:02:41.000Z",1,1,"0.103",1581F5BMD23B4002FY15,3,"1.712","-97.4","31.824970311803256","117.09522317012018",M30T,"5.1",0,"1,917,156,821,996,740,608",1917156852447387600,dfdf,0
"uIX_gJYBnF7jCuO6o_Fn","task-uav-data","-","_doc","145.534","2025-04-29T18:02:39.000Z",1,1,"0.106",1581F5BMD23B4002FY15,3,"3.92","-97.4","31.824978219005178","117.09529288626757",M30T,"-4.3","-1.1","1,917,156,821,996,740,608",1917156852447387600,dfdf,0
"toX_gJYBnF7jCuO6m_GV","task-uav-data","-","_doc","145.534","2025-04-29T18:02:37.000Z",1,1,"0.11",1581F5BMD23B4002FY15,3,"3.932","-97.4","31.82498739568811","117.09537572716805",M30T,"-4.4","-0.1","1,917,156,821,996,740,608",1917156852447387600,dfdf,0
"tIX_gJYBnF7jCuO6k_HU","task-uav-data","-","_doc","145.534","2025-04-29T18:02:35.000Z",1,1,"0.114",1581F5BMD23B4002FY15,3,"3.92","-97.4","31.824996696351555","117.09545868228467",M30T,"-4.5","-0.4","1,917,156,821,996,740,608",1917156852447387600,dfdf,0
"soX_gJYBnF7jCuO6i_H-","task-uav-data","-","_doc","145.534","2025-04-29T18:02:33.000Z",1,1,"0.119",1581F5BMD23B4002FY15,3,"3.92","-97.4","31.82500593403098","117.09554114242438",M30T,"-4.5","-0.9","1,917,156,821,996,740,608",1917156852447387600,dfdf,0
"sIX_gJYBnF7jCuO6hPEd","task-uav-data","-","_doc","145.634","2025-04-29T18:02:31.000Z",1,1,"0.124",1581F5BMD23B4002FY15,3,"3.92","-97.4","31.825015141075085","117.09562353347782",M30T,"-4.3","-0.9","1,917,156,821,996,740,608",1917156852447387600,dfdf,0
"roX_gJYBnF7jCuO6fPFL","task-uav-data","-","_doc","145.534","2025-04-29T18:02:29.000Z",1,1,"0.129",1581F5BMD23B4002FY15,3,"3.821","-97.3","31.82502439109088","117.09570639647944",M30T,"-4.3","-1.1","1,917,156,821,996,740,608",1917156852447387600,dfdf,0
"rIX_gJYBnF7jCuO6dPGE","task-uav-data","-","_doc","145.534","2025-04-29T18:02:27.000Z",1,1,"0.135",1581F5BMD23B4002FY15,3,"3.821","-97.3","31.825033729860007","117.09578927061231",M30T,"-4.2","-1.1","1,917,156,821,996,740,608",1917156852447387600,dfdf,0
"qoX_gJYBnF7jCuO6bPGx","task-uav-data","-","_doc","145.534","2025-04-29T18:02:25.000Z",1,1,"0.14",1581F5BMD23B4002FY15,3,"3.833","-97.3","31.82504308555737","117.09587314623357",M30T,"-4.1","-0.8","1,917,156,821,996,740,608",1917156852447387600,dfdf,0
"qIX_gJYBnF7jCuO6ZPHZ","task-uav-data","-","_doc","145.634","2025-04-29T18:02:23.000Z",1,1,"0.146",1581F5BMD23B4002FY15,3,"3.833","-97.1","31.82505204607968","117.09595461887959",M30T,"-5.3","0.4","1,917,156,821,996,740,608",1917156852447387600,dfdf,0
"poX_gJYBnF7jCuO6XfE0","task-uav-data","-","_doc","145.634","2025-04-29T18:02:21.000Z",2,2,"0.15",1581F5BMD23B4002FY15,3,"0.7","-83.1","31.825059084458488","117.0960120940374",M30T,"-8.5","-5.4","1,917,156,821,996,740,608",1917156852447387600,dfdf,0
"pIX_gJYBnF7jCuO6VfFC","task-uav-data","-","_doc","145.634","2025-04-29T18:02:19.000Z",1,1,"0.15",1581F5BMD23B4002FY15,3,"0.1","2.2","31.825058335846435","117.09601490902963",M30T,"2.1","-1.6","1,917,156,821,996,740,608",1917156852447387600,dfdf,0
"ooX_gJYBnF7jCuO6TfF_","task-uav-data","-","_doc","145.634","2025-04-29T18:02:17.000Z",2,2,"0.15",1581F5BMD23B4002FY15,3,"1.2","2.1","31.825046829645647","117.09601462970019",M30T,"5.3","-0.7","1,917,156,821,996,740,608",1917156852447387600,dfdf,0
"oIX_gJYBnF7jCuO6RfGZ","task-uav-data","-","_doc","145.634","2025-04-29T18:02:15.000Z",1,1,"0.145",1581F5BMD23B4002FY15,3,"4.001","2.2","31.824994826843227","117.09601256751813",M30T,"-2.8","-1.8","1,917,156,821,996,740,608",1917156852447387600,dfdf,0
"noX_gJYBnF7jCuO6PfHX","task-uav-data","-","_doc","145.534","2025-04-29T18:02:13.000Z",1,1,"0.14",1581F5BMD23B4002FY15,3,"4.001","2.1","31.824922381990447","117.09600931937571",M30T,"-2.9","-1.6","1,917,156,821,996,740,608",1917156852447387600,dfdf,0
"nIX_gJYBnF7jCuO6NvEB","task-uav-data","-","_doc","145.634","2025-04-29T18:02:11.000Z",1,1,"0.134",1581F5BMD23B4002FY15,3,"3.901","2.2","31.824850054264644","117.09600612019459",M30T,"-3.2","-1.7","1,917,156,821,996,740,608",1917156852447387600,dfdf,0
"moX_gJYBnF7jCuO6LvE4","task-uav-data","-","_doc","145.634","2025-04-29T18:02:09.000Z",1,1,"0.129",1581F5BMD23B4002FY15,3,"4.001","2.2","31.824778635934912","117.09600278542213",M30T,"-3.2","-1.4","1,917,156,821,996,740,608",1917156852447387600,dfdf,0
"mIX_gJYBnF7jCuO6JvFb","task-uav-data","-","_doc","145.534","2025-04-29T18:02:07.000Z",1,1,"0.124",1581F5BMD23B4002FY15,3,"3.901","2.2","31.8247077165428","117.09599967238707",M30T,"-3.5","-1.8","1,917,156,821,996,740,608",1917156852447387600,dfdf,0
"loX_gJYBnF7jCuO6HvGP","task-uav-data","-","_doc","145.634","2025-04-29T18:02:05.000Z",1,1,"0.12",1581F5BMD23B4002FY15,3,"3.901","2.2","31.82463718787095","117.09599644787838",M30T,"-3.7","-1.1","1,917,156,821,996,740,608",1917156852447387600,dfdf,0
"lIX_gJYBnF7jCuO6FvHH","task-uav-data","-","_doc","145.634","2025-04-29T18:02:03.000Z",1,1,"0.115",1581F5BMD23B4002FY15,3,"3.901","2.2","31.82456723304591","117.09599350116652",M30T,"-3.5","-1.3","1,917,156,821,996,740,608",1917156852447387600,dfdf,0
"koX_gJYBnF7jCuO6D_EH","task-uav-data","-","_doc","145.634","2025-04-29T18:02:01.000Z",2,2,"0.112",1581F5BMD23B4002FY15,3,"3.901","2.2","31.824497780825137","117.095990540097",M30T,"-3.6","-1.3","1,917,156,821,996,740,608",1917156852447387600,dfdf,0
"kIX_gJYBnF7jCuO6B_Ed","task-uav-data","-","_doc","145.534","2025-04-29T18:01:59.000Z",1,1,"0.108",1581F5BMD23B4002FY15,3,"3.9","2.4","31.824428144826726","117.09598750046356",M30T,"-3.7","-1.5","1,917,156,821,996,740,608",1917156852447387600,dfdf,0
"joX-gJYBnF7jCuO6__FR","task-uav-data","-","_doc","145.534","2025-04-29T18:01:57.000Z",1,1,"0.106",1581F5BMD23B4002FY15,3,"3.5","3.1","31.824360101813483","117.095984234737",M30T,"-15.8","-3.1","1,917,156,821,996,740,608",1917156852447387600,dfdf,0
"jIX-gJYBnF7jCuO69_F7","task-uav-data","-","_doc","145.534","2025-04-29T18:01:55.000Z",1,1,"0.105",1581F5BMD23B4002FY15,3,0,"61.1","31.82433864093316","117.09598231088877",M30T,0,"-0.1","1,917,156,821,996,740,608",1917156852447387600,dfdf,0
"ioX-gJYBnF7jCuO67_Gu","task-uav-data","-","_doc","145.534","2025-04-29T18:01:53.000Z",1,1,"0.104",1581F5BMD23B4002FY15,3,"0.316","73.8","31.824338036005557","117.09597927778891",M30T,"2.9","0.1","1,917,156,821,996,740,608",1917156852447387600,dfdf,0
"iIX-gJYBnF7jCuO65_HZ","task-uav-data","-","_doc","145.634","2025-04-29T18:01:51.000Z",1,1,"0.102",1581F5BMD23B4002FY15,3,"1.965","73.9","31.824333025982984","117.09595866645431",M30T,"7.9","0.3","1,917,156,821,996,740,608",1917156852447387600,dfdf,0
"hoX-gJYBnF7jCuO64PER","task-uav-data","-","_doc","145.534","2025-04-29T18:01:49.000Z",1,1,"0.097",1581F5BMD23B4002FY15,3,"2.912","73.9","31.824318963497866","117.0959015862133",M30T,"-1.9",0,"1,917,156,821,996,740,608",1917156852447387600,dfdf,0
"hIX-gJYBnF7jCuO62PFM","task-uav-data","-","_doc","145.634","2025-04-29T18:01:47.000Z",1,1,"0.091",1581F5BMD23B4002FY15,3,"2.912","73.9","31.824304068393456","117.09584099777847",M30T,"-1.9","-0.3","1,917,156,821,996,740,608",1917156852447387600,dfdf,0
"goX-gJYBnF7jCuO60PFw","task-uav-data","-","_doc","145.534","2025-04-29T18:01:45.000Z",1,1,"0.085",1581F5BMD23B4002FY15,3,"2.912","73.9","31.8242892766918","117.0957804431406",M30T,"-2.1","-0.2","1,917,156,821,996,740,608",1917156852447387600,dfdf,0
"gIX-gJYBnF7jCuO6yPG4","task-uav-data","-","_doc","145.634","2025-04-29T18:01:43.000Z",2,2,"0.079",1581F5BMD23B4002FY15,3,"2.912","73.9","31.824274385151227","117.09571977896495",M30T,"-1.8","-0.2","1,917,156,821,996,740,608",1917156852447387600,dfdf,0
"foX-gJYBnF7jCuO6wPHX","task-uav-data","-","_doc","145.634","2025-04-29T18:01:41.000Z",1,1,"0.073",1581F5BMD23B4002FY15,3,"2.912","73.9","31.82425946331801","117.09565932354026",M30T,"-1.8","-0.2","1,917,156,821,996,740,608",1917156852447387600,dfdf,0
"fIX-gJYBnF7jCuO6ufEE","task-uav-data","-","_doc","145.534","2025-04-29T18:01:39.000Z",1,1,"0.067",1581F5BMD23B4002FY15,3,"2.912","73.9","31.82424451487593","117.09559867335935",M30T,"-1.8","-0.1","1,917,156,821,996,740,608",1917156852447387600,dfdf,0
"eoX-gJYBnF7jCuO6sfE3","task-uav-data","-","_doc","145.534","2025-04-29T18:01:37.000Z",1,1,"0.061",1581F5BMD23B4002FY15,3,"2.912","73.9","31.824229384232517","117.0955376812156",M30T,"-1.7","-0.5","1,917,156,821,996,740,608",1917156852447387600,dfdf,0
"eIX-gJYBnF7jCuO6qfFa","task-uav-data","-","_doc","145.534","2025-04-29T18:01:35.000Z",1,1,"0.055",1581F5BMD23B4002FY15,3,"2.912","73.9","31.824214470683515","117.09547691230152",M30T,"-1.7","-0.4","1,917,156,821,996,740,608",1917156852447387600,dfdf,0
"doX-gJYBnF7jCuO6ofGX","task-uav-data","-","_doc","145.634","2025-04-29T18:01:33.000Z",1,1,"0.049",1581F5BMD23B4002FY15,3,"2.912","73.9","31.824199306749037","117.09541574984182",M30T,"-1.7","-0.6","1,917,156,821,996,740,608",1917156852447387600,dfdf,0
"dIX-gJYBnF7jCuO6mfG_","task-uav-data","-","_doc","145.534","2025-04-29T18:01:31.000Z",1,1,"0.043",1581F5BMD23B4002FY15,3,"2.912","73.9","31.8241842726677","117.09535489792745",M30T,"-1.6","-0.8","1,917,156,821,996,740,608",1917156852447387600,dfdf,0
"coX-gJYBnF7jCuO6kfHt","task-uav-data","-","_doc","145.634","2025-04-29T18:01:29.000Z",1,1,"0.037",1581F5BMD23B4002FY15,3,"2.941","73.9","31.82416923213119","117.09529385133747",M30T,"-1.5","-1.1","1,917,156,821,996,740,608",1917156852447387600,dfdf,0
"cIX-gJYBnF7jCuO6ivEl","task-uav-data","-","_doc","145.634","2025-04-29T18:01:27.000Z",1,1,"0.031",1581F5BMD23B4002FY15,3,"2.941",74,"31.8241543635821","117.09523311976946",M30T,"-1.9","-0.5","1,917,156,821,996,740,608",1917156852447387600,dfdf,0
"boX-gJYBnF7jCuO6gvFU","task-uav-data","-","_doc","145.534","2025-04-29T18:01:25.000Z",1,1,"0.025",1581F5BMD23B4002FY15,3,"2.941",74,"31.8241395123264","117.09517247301663",M30T,"-1.8","-0.7","1,917,156,821,996,740,608",1917156852447387600,dfdf,0
"bIX-gJYBnF7jCuO6evGq","task-uav-data","-","_doc","145.634","2025-04-29T18:01:23.000Z",2,2,"0.019",1581F5BMD23B4002FY15,3,"2.941",74,"31.824124630609614","117.09511149498859",M30T,"-2","-0.5","1,917,156,821,996,740,608",1917156852447387600,dfdf,0
"aoX-gJYBnF7jCuO6cvG2","task-uav-data","-","_doc","145.534","2025-04-29T18:01:21.000Z",1,1,"0.013",1581F5BMD23B4002FY15,3,"2.912",74,"31.82410972920992","117.0950507163246",M30T,"-1.9","-0.6","1,917,156,821,996,740,608",1917156852447387600,dfdf,0
"aIX-gJYBnF7jCuO6avHn","task-uav-data","-","_doc","145.534","2025-04-29T18:01:19.000Z",1,1,"0.007",1581F5BMD23B4002FY15,3,"2.912","74.2","31.824094634742483","117.09498903802195",M30T,"-1.7","-0.6","1,917,156,821,996,740,608",1917156852447387600,dfdf,0
"ZoX-gJYBnF7jCuO6Y_Ek","task-uav-data","-","_doc","145.534","2025-04-29T18:01:17.000Z",1,1,"0.001",1581F5BMD23B4002FY15,3,"2.159","75.2","31.824080446527052","117.09493002764684",M30T,"-14.6","-2.1","1,917,156,821,996,740,608",1917156852447387600,dfdf,0
"ZIX-gJYBnF7jCuO6W_E_","task-uav-data","-","_doc","145.434","2025-04-29T18:01:15.000Z",1,1,0,1581F5BMD23B4002FY15,3,0,"135.9","31.8240780303462","117.09491895487908",M30T,"0.8","2.5","1,917,156,821,996,740,608",1917156852447387600,dfdf,0
"YoX-gJYBnF7jCuO6U_Fr","task-uav-data","-","_doc","144.634","2025-04-29T18:01:13.000Z",1,1,0,1581F5BMD23B4002FY15,3,0,"135.9","31.824078128201887","117.09491926879828",M30T,0,"0.7","1,917,156,821,996,740,608",1917156852447387600,dfdf,"0.6"
"YIX-gJYBnF7jCuO6S_Gw","task-uav-data","-","_doc","141.834","2025-04-29T18:01:11.000Z",2,2,0,1581F5BMD23B4002FY15,3,0,"136.1","31.82407817433477","117.09491935676803",M30T,"1.8","1.3","1,917,156,821,996,740,608",1917156852447387600,dfdf,"2.8"
"XoX-gJYBnF7jCuO6Q_HM","task-uav-data","-","_doc","139.434","2025-04-29T18:01:09.000Z",1,1,0,1581F5BMD23B4002FY15,3,0,"135.9","31.824078107577012","117.09491906716566",M30T,"0.4","1.4","1,917,156,821,996,740,608",1917156852447387600,dfdf,0
"XIX-gJYBnF7jCuO6PPEI","task-uav-data","-","_doc","138.834","2025-04-29T18:01:07.000Z",1,1,0,1581F5BMD23B4002FY15,3,0,"135.9","31.824078015264128","117.09491896873391",M30T,0,"1.2","1,917,156,821,996,740,608",1917156852447387600,dfdf,"0.5"
"WoX-gJYBnF7jCuO6NPEu","task-uav-data","-","_doc","136.134","2025-04-29T18:01:05.000Z",1,1,0,1581F5BMD23B4002FY15,3,0,136,"31.824078218223114","117.09491931846031",M30T,1,"0.9","1,917,156,821,996,740,608",1917156852447387600,dfdf,"2.5"
"WIX-gJYBnF7jCuO6LPFa","task-uav-data","-","_doc","130.234","2025-04-29T18:01:03.000Z",1,1,0,1581F5BMD23B4002FY15,3,0,"135.9","31.824078192359575","117.09491935991636",M30T,"0.9","1.4","1,917,156,821,996,740,608",1917156852447387600,dfdf,3
"VoX-gJYBnF7jCuO6JPGU","task-uav-data","-","_doc","124.134","2025-04-29T18:01:01.000Z",1,1,0,1581F5BMD23B4002FY15,3,0,"135.9","31.824078263884818","117.09491934386605",M30T,"0.2","0.9","1,917,156,821,996,740,608",1917156852447387600,dfdf,"2.9"
"VIX-gJYBnF7jCuO6HPHU","task-uav-data","-","_doc","118.234","2025-04-29T18:00:59.000Z",1,1,0,1581F5BMD23B4002FY15,3,0,"135.9","31.82407833450197","117.09491943680027",M30T,"0.6","1.2","1,917,156,821,996,740,608",1917156852447387600,dfdf,3
"UoX-gJYBnF7jCuO6FPH0","task-uav-data","-","_doc","112.234","2025-04-29T18:00:57.000Z",1,1,0,1581F5BMD23B4002FY15,3,0,"135.9","31.824078293415","117.09491936483415",M30T,"0.8","0.9","1,917,156,821,996,740,608",1917156852447387600,dfdf,"2.9"
"UIX-gJYBnF7jCuO6DfEe","task-uav-data","-","_doc","106.234","2025-04-29T18:00:55.000Z",1,1,0,1581F5BMD23B4002FY15,3,0,"135.9","31.824078341916643","117.0949194195917",M30T,"0.4","0.9","1,917,156,821,996,740,608",1917156852447387600,dfdf,"2.9"
"ToX-gJYBnF7jCuO6BfFR","task-uav-data","-","_doc","100.234","2025-04-29T18:00:53.000Z",1,1,0,1581F5BMD23B4002FY15,3,0,"135.9","31.82407844081749","117.09491930083084",M30T,"0.5",1,"1,917,156,821,996,740,608",1917156852447387600,dfdf,3
"TIX9gJYBnF7jCuO6_fF9","task-uav-data","-","_doc","94.134","2025-04-29T18:00:51.000Z",1,1,0,1581F5BMD23B4002FY15,3,0,"135.9","31.824078469006952","117.09491934360642",M30T,"0.3","0.9","1,917,156,821,996,740,608",1917156852447387600,dfdf,"2.9"
SoX9gJYBnF7jCuO69fGu,"task-uav-data","-","_doc","88.234","2025-04-29T18:00:49.000Z",1,1,0,1581F5BMD23B4002FY15,3,0,"135.9","31.82407848221287","117.09491940480554",M30T,"0.6","0.6","1,917,156,821,996,740,608",1917156852447387600,dfdf,"2.9"
SIX9gJYBnF7jCuO67fHk,"task-uav-data","-","_doc","82.234","2025-04-29T18:00:47.000Z",1,1,0,1581F5BMD23B4002FY15,3,0,"135.9","31.82407838183422","117.09491915488967",M30T,"0.1","0.3","1,917,156,821,996,740,608",1917156852447387600,dfdf,3
RoX9gJYBnF7jCuO65vEU,"task-uav-data","-","_doc","76.234","2025-04-29T18:00:45.000Z",1,1,0,1581F5BMD23B4002FY15,3,0,"135.9","31.824078468265913","117.09491937984721",M30T,"0.1","0.5","1,917,156,821,996,740,608",1917156852447387600,dfdf,"2.9"
"RIX9gJYBnF7jCuO63vE_","task-uav-data","-","_doc","70.134","2025-04-29T18:00:43.000Z",1,1,0,1581F5BMD23B4002FY15,3,0,"135.9","31.82407867729885","117.09491959488973",M30T,"0.5","0.3","1,917,156,821,996,740,608",1917156852447387600,dfdf,"2.9"
QoX9gJYBnF7jCuO61vGR,"task-uav-data","-","_doc","64.234","2025-04-29T18:00:41.000Z",2,2,0,1581F5BMD23B4002FY15,3,0,"135.9","31.824079071090342","117.09491995499877",M30T,"0.1","1.3","1,917,156,821,996,740,608",1917156852447387600,dfdf,3
QIX9gJYBnF7jCuO6zvGh,"task-uav-data","-","_doc","58.734","2025-04-29T18:00:39.000Z",1,1,0,1581F5BMD23B4002FY15,3,0,"135.7","31.824078387959574","117.09491942815187",M30T,"1.1","1.2","1,917,156,821,996,740,608",1917156852447387600,dfdf,"1.2"
PoX9gJYBnF7jCuO6xvHV,"task-uav-data","-","_doc","58.034","2025-04-29T18:00:37.000Z",3,3,0,1581F5BMD23B4002FY15,3,0,136,"31.8240787705284","117.09491940154126",M30T,"-0.3","3.7","1,917,156,821,996,740,608",1917156852447387600,dfdf,1
PIX9gJYBnF7jCuO6vvH9,"task-uav-data","-","_doc","52.634","2025-04-29T18:00:35.000Z",1,1,0,1581F5BMD23B4002FY15,3,0,136,"31.824078129358416","117.09491786258266",M30T,4,0,"1,917,156,821,996,740,608",1917156852447387600,dfdf,0
"OoX9gJYBnF7jCuO6t_FC","task-uav-data","-","_doc","52.634","2025-04-29T18:00:33.000Z","-","-",0,1581F5BMD23B4002FY15,3,0,136,"31.824078091766754","117.09491778861641",M30T,"3.9",0,"1,917,156,821,996,740,608",1917156852447387600,dfdf,0
"OIX9gJYBnF7jCuO6r_Fg","task-uav-data","-","_doc","52.634","2025-04-29T18:00:31.000Z","-","-",0,1581F5BMD23B4002FY15,3,0,135,"31.8240780832341","117.09491781058775",M30T,"3.9","-0.1","1,917,156,821,996,740,608",1917156852447387600,dfdf,0
"NoX9gJYBnF7jCuO6p_GS","task-uav-data","-","_doc","52.642","2025-04-29T18:00:29.000Z","-","-",0,1581F5BMD23B4002FY15,3,0,135,"31.824078069411367","117.09491784304882",M30T,"3.9","-0.1","1,917,156,821,996,740,608",1917156852447387600,dfdf,0
"NIX9gJYBnF7jCuO6n_G8","task-uav-data","-","_doc","52.62","2025-04-29T18:00:27.000Z","-","-",0,1581F5BMD23B4002FY15,3,0,"134.9","31.82407807568664","117.0949178341824",M30T,"3.8","-0.1","1,917,156,821,996,740,608",1917156852447387600,dfdf,0
"MoX9gJYBnF7jCuO6l_Hr","task-uav-data","-","_doc","52.627","2025-04-29T18:00:25.000Z","-","-",0,1581F5BMD23B4002FY15,3,0,135,"31.824078084155044","117.09491784041094",M30T,"3.8",0,"1,917,156,821,996,740,608",1917156852447387600,dfdf,0
MIX9gJYBnF7jCuO6kPEc,"task-uav-data","-","_doc","52.627","2025-04-29T18:00:23.000Z","-","-",0,1581F5BMD23B4002FY15,3,0,135,"31.824078064661013","117.09491784142047",M30T,"3.8",0,"1,917,156,821,996,740,608",1917156852447387600,dfdf,0
LoX9gJYBnF7jCuO6iPFg,"task-uav-data","-","_doc","52.632","2025-04-29T18:00:21.000Z","-","-","0.005",1581F5BMD23B4002FY15,3,0,"135.1","31.82407801150325","117.09491765468495",M30T,"3.8",0,"1,917,156,821,996,740,608",1917156852447387600,dfdf,0
K4X9gJYBnF7jCuO6gPGH,"task-uav-data","-","_doc","58.502","2025-04-29T18:00:19.000Z","-","-",0,1581F5BMD23B4002FY15,3,0,"135.1","31.8241208104075","117.09493194722633",M30T,"3.8",0,"1,917,156,821,996,740,608",1917156852447387600,dfdf,0
